{
"type": "FeatureCollection",
"crs": { "type": "name", "properties": { "name": "urn:ogc:def:crs:OGC:1.3:CRS84" } },
"features": [
{ "type": "Feature", "properties": { "name": "Rosoga Dispensary", "amenities": "healthcare", "prob_bin": 8.0 }, "geometry": { "type": "Point", "coordinates": [ 35.8572994, 0.1026951 ] } },
{ "type": "Feature", "properties": { "name": "Schools of Excellence Primary", "amenities": "education", "prob_bin": 8.0 }, "geometry": { "type": "Point", "coordinates": [ 36.5609312, -0.661106 ] } },
{ "type": "Feature", "properties": { "name": "Greenview Secondary School", "amenities": "education", "prob_bin": 8.0 }, "geometry": { "type": "Point", "coordinates": [ 36.5683905, -0.8693271 ] } },
{ "type": "Feature", "properties": { "name": "Karati Secondary School", "amenities": "education", "prob_bin": 8.0 }, "geometry": { "type": "Point", "coordinates": [ 36.5688039, -0.7325511 ] } },
{ "type": "Feature", "properties": { "name": "Sint Paul Secondary School", "amenities": "education", "prob_bin": 8.0 }, "geometry": { "type": "Point", "coordinates": [ 36.6257027, -0.7009034 ] } },
{ "type": "Feature", "properties": { "name": "Aberdare Girls", "amenities": "education", "prob_bin": 8.0 }, "geometry": { "type": "Point", "coordinates": [ 36.67048, -0.7369495 ] } },
{ "type": "Feature", "properties": { "name": "Abercrest Secondary School", "amenities": "education", "prob_bin": 8.0 }, "geometry": { "type": "Point", "coordinates": [ 36.5584479, -0.660345 ] } },
{ "type": "Feature", "properties": { "name": "Rugongo Secondary School", "amenities": "education", "prob_bin": 8.0 }, "geometry": { "type": "Point", "coordinates": [ 36.5442625, -0.6511097 ] } },
{ "type": "Feature", "properties": { "name": "Munyaka Secondary School", "amenities": "education", "prob_bin": 8.0 }, "geometry": { "type": "Point", "coordinates": [ 36.6187866, -0.6854964 ] } },
{ "type": "Feature", "properties": { "name": "Magomano Girls Secondary School", "amenities": "education", "prob_bin": 8.0 }, "geometry": { "type": "Point", "coordinates": [ 36.5828936, -0.6066573 ] } },
{ "type": "Feature", "properties": { "name": "Dima", "amenities": "education", "prob_bin": 8.0 }, "geometry": { "type": "Point", "coordinates": [ 36.5721686, -0.602252 ] } },
{ "type": "Feature", "properties": { "name": "Wisdom Secondary School", "amenities": "education", "prob_bin": 8.0 }, "geometry": { "type": "Point", "coordinates": [ 36.548003, -0.6033477 ] } },
{ "type": "Feature", "properties": { "name": "Mwendandu", "amenities": "education", "prob_bin": 8.0 }, "geometry": { "type": "Point", "coordinates": [ 36.5315487, -0.5874327 ] } },
{ "type": "Feature", "properties": { "name": "Iganjo Memorial Secondary School", "amenities": "education", "prob_bin": 8.0 }, "geometry": { "type": "Point", "coordinates": [ 36.6026238, -0.5682012 ] } },
{ "type": "Feature", "properties": { "name": "Mawingo Secondary School", "amenities": "education", "prob_bin": 6.0 }, "geometry": { "type": "Point", "coordinates": [ 36.5037326, -0.4712468 ] } },
{ "type": "Feature", "properties": { "name": "Matura Secondary", "amenities": "education", "prob_bin": 8.0 }, "geometry": { "type": "Point", "coordinates": [ 36.3481316, -0.1598036 ] } },
{ "type": "Feature", "properties": { "name": "Mukenya Primary School", "amenities": "education", "prob_bin": 8.0 }, "geometry": { "type": "Point", "coordinates": [ 36.3520271, -0.2922029 ] } },
{ "type": "Feature", "properties": { "name": "Mukenya Secondary School", "amenities": "education", "prob_bin": 8.0 }, "geometry": { "type": "Point", "coordinates": [ 36.3506078, -0.2881962 ] } },
{ "type": "Feature", "properties": { "name": "Elshadai Educational Centre", "amenities": "education", "prob_bin": 8.0 }, "geometry": { "type": "Point", "coordinates": [ 36.868162, -1.2586022 ] } },
{ "type": "Feature", "properties": { "name": "Furaha Community Centre", "amenities": "education", "prob_bin": 8.0 }, "geometry": { "type": "Point", "coordinates": [ 36.8680843, -1.2576873 ] } },
{ "type": "Feature", "properties": { "name": "Eden Annex Preparatory School", "amenities": "education", "prob_bin": 8.0 }, "geometry": { "type": "Point", "coordinates": [ 36.8684257, -1.2599623 ] } },
{ "type": "Feature", "properties": { "name": "St Rosa Education Centre", "amenities": "education", "prob_bin": 8.0 }, "geometry": { "type": "Point", "coordinates": [ 36.8674174, -1.2578236 ] } },
{ "type": "Feature", "properties": { "name": "St Teresa's Girls Primary School", "amenities": "education", "prob_bin": 8.0 }, "geometry": { "type": "Point", "coordinates": [ 36.8471008, -1.2646117 ] } },
{ "type": "Feature", "properties": { "name": "Millennium Academy", "amenities": "education", "prob_bin": 8.0 }, "geometry": { "type": "Point", "coordinates": [ 36.8650356, -1.2582115 ] } },
{ "type": "Feature", "properties": { "name": "Upendo Children Education and Rehabilitation Centre", "amenities": "education", "prob_bin": 8.0 }, "geometry": { "type": "Point", "coordinates": [ 36.8650404, -1.2582544 ] } },
{ "type": "Feature", "properties": { "name": "Daystar Junior Education Center Mabatini", "amenities": "education", "prob_bin": 8.0 }, "geometry": { "type": "Point", "coordinates": [ 36.8631972, -1.2586198 ] } },
{ "type": "Feature", "properties": { "name": "Billgates Care Primary", "amenities": "education", "prob_bin": 8.0 }, "geometry": { "type": "Point", "coordinates": [ 36.8614458, -1.2611295 ] } },
{ "type": "Feature", "properties": { "name": "Genesis Joy Project Institute", "amenities": "education", "prob_bin": 8.0 }, "geometry": { "type": "Point", "coordinates": [ 36.8542255, -1.2613952 ] } },
{ "type": "Feature", "properties": { "name": "Alliant Junior Academy", "amenities": "education", "prob_bin": 8.0 }, "geometry": { "type": "Point", "coordinates": [ 36.8654667, -1.2590757 ] } },
{ "type": "Feature", "properties": { "name": "Munyaka Day Secondary", "amenities": "education", "prob_bin": 5.0 }, "geometry": { "type": "Point", "coordinates": [ 36.356459, 0.0565565 ] } },
{ "type": "Feature", "properties": { "name": "Karagoine Secondary", "amenities": "education", "prob_bin": 8.0 }, "geometry": { "type": "Point", "coordinates": [ 36.4746293, -0.0065533 ] } },
{ "type": "Feature", "properties": { "name": "Githunguchi Secondary School", "amenities": "education", "prob_bin": 8.0 }, "geometry": { "type": "Point", "coordinates": [ 36.4297609, -0.0179287 ] } },
{ "type": "Feature", "properties": { "name": "Gatimu Secondary", "amenities": "education", "prob_bin": 8.0 }, "geometry": { "type": "Point", "coordinates": [ 36.3732402, -0.0319622 ] } },
{ "type": "Feature", "properties": { "name": "Mirangine Secondary", "amenities": "education", "prob_bin": 8.0 }, "geometry": { "type": "Point", "coordinates": [ 36.2550506, -0.2256388 ] } },
{ "type": "Feature", "properties": { "name": "Tumani Secondary", "amenities": "education", "prob_bin": 8.0 }, "geometry": { "type": "Point", "coordinates": [ 36.2909936, -0.2461321 ] } },
{ "type": "Feature", "properties": { "name": "Mkungi Secondary", "amenities": "education", "prob_bin": 8.0 }, "geometry": { "type": "Point", "coordinates": [ 36.5504018, -0.5261964 ] } },
{ "type": "Feature", "properties": { "name": "Mathare outreach community (Joy)", "amenities": "education", "prob_bin": 8.0 }, "geometry": { "type": "Point", "coordinates": [ 36.8604569, -1.2639244 ] } },
{ "type": "Feature", "properties": { "name": "Kinara Hospital", "amenities": "healthcare", "prob_bin": 8.0 }, "geometry": { "type": "Point", "coordinates": [ 34.9354256, -0.5811292 ] } },
{ "type": "Feature", "properties": { "name": "Soldier OF FAITH Educational Centre", "amenities": "education", "prob_bin": 8.0 }, "geometry": { "type": "Point", "coordinates": [ 36.8762976, -1.2567261 ] } },
{ "type": "Feature", "properties": { "name": "Daima Primary School", "amenities": "education", "prob_bin": 8.0 }, "geometry": { "type": "Point", "coordinates": [ 36.8701237, -1.2599802 ] } },
{ "type": "Feature", "properties": { "name": "Elshadai Education Centre", "amenities": "education", "prob_bin": 8.0 }, "geometry": { "type": "Point", "coordinates": [ 36.868339, -1.2585989 ] } },
{ "type": "Feature", "properties": { "name": "Eden Annex Preparatory School", "amenities": "education", "prob_bin": 8.0 }, "geometry": { "type": "Point", "coordinates": [ 36.8685089, -1.2599079 ] } },
{ "type": "Feature", "properties": { "name": "Samergo Glorious Education Centre", "amenities": "education", "prob_bin": 8.0 }, "geometry": { "type": "Point", "coordinates": [ 36.8669615, -1.2578268 ] } },
{ "type": "Feature", "properties": { "name": "Alliant Junior Academy", "amenities": "education", "prob_bin": 8.0 }, "geometry": { "type": "Point", "coordinates": [ 36.8655353, -1.259218 ] } },
{ "type": "Feature", "properties": { "name": "Salama Primary School", "amenities": "education", "prob_bin": 8.0 }, "geometry": { "type": "Point", "coordinates": [ 36.8715756, -1.259848 ] } },
{ "type": "Feature", "properties": { "name": "St Ruth Academy", "amenities": "education", "prob_bin": 8.0 }, "geometry": { "type": "Point", "coordinates": [ 36.8665046, -1.2602932 ] } },
{ "type": "Feature", "properties": { "name": "Faith Academy", "amenities": "education", "prob_bin": 8.0 }, "geometry": { "type": "Point", "coordinates": [ 36.8721969, -1.2564622 ] } },
{ "type": "Feature", "properties": { "name": "Sweet Berries Educational Centre", "amenities": "education", "prob_bin": 8.0 }, "geometry": { "type": "Point", "coordinates": [ 36.8681314, -1.2604153 ] } },
{ "type": "Feature", "properties": { "name": "St Ann Daycare Nursery School", "amenities": "education", "prob_bin": 8.0 }, "geometry": { "type": "Point", "coordinates": [ 36.8693873, -1.2592606 ] } },
{ "type": "Feature", "properties": { "name": "Roses Daycare and Academy", "amenities": "education", "prob_bin": 8.0 }, "geometry": { "type": "Point", "coordinates": [ 36.8681242, -1.2598504 ] } },
{ "type": "Feature", "properties": { "name": "Carol Angels Education centre", "amenities": "education", "prob_bin": 8.0 }, "geometry": { "type": "Point", "coordinates": [ 36.8719737, -1.2551761 ] } },
{ "type": "Feature", "properties": { "name": "St.Martin's Deporres Primary school", "amenities": "education", "prob_bin": 8.0 }, "geometry": { "type": "Point", "coordinates": [ 36.8727693, -1.2548446 ] } },
{ "type": "Feature", "properties": { "name": "St.Michael Educational Centre", "amenities": "education", "prob_bin": 8.0 }, "geometry": { "type": "Point", "coordinates": [ 36.8626335, -1.2610989 ] } },
{ "type": "Feature", "properties": { "name": "Sancare Preparatory School", "amenities": "education", "prob_bin": 8.0 }, "geometry": { "type": "Point", "coordinates": [ 36.8657135, -1.2596937 ] } },
{ "type": "Feature", "properties": { "name": "Good Samaritan Children Home and Rehabilitation Center", "amenities": "education", "prob_bin": 8.0 }, "geometry": { "type": "Point", "coordinates": [ 36.8520017, -1.2645743 ] } },
{ "type": "Feature", "properties": { "name": "MCEDO Beijing Education Centre", "amenities": "education", "prob_bin": 8.0 }, "geometry": { "type": "Point", "coordinates": [ 36.8556398, -1.2631724 ] } },
{ "type": "Feature", "properties": { "name": "Patmos School", "amenities": "education", "prob_bin": 8.0 }, "geometry": { "type": "Point", "coordinates": [ 36.8578433, -1.2635378 ] } },
{ "type": "Feature", "properties": { "name": "Codman Secondary School", "amenities": "education", "prob_bin": 8.0 }, "geometry": { "type": "Point", "coordinates": [ 36.8566209, -1.2654883 ] } },
{ "type": "Feature", "properties": { "name": "MCEDO Beijing Education Centre-Pre Primary", "amenities": "education", "prob_bin": 8.0 }, "geometry": { "type": "Point", "coordinates": [ 36.8556255, -1.2631221 ] } },
{ "type": "Feature", "properties": { "name": "Mathare Kosovo Outspot And Community School", "amenities": "education", "prob_bin": 8.0 }, "geometry": { "type": "Point", "coordinates": [ 36.8547542, -1.2631963 ] } },
{ "type": "Feature", "properties": { "name": "Mathare Community Outreach (Joy)", "amenities": "education", "prob_bin": 8.0 }, "geometry": { "type": "Point", "coordinates": [ 36.860592, -1.2638977 ] } },
{ "type": "Feature", "properties": { "name": "Hope Compassion Centre", "amenities": "education", "prob_bin": 8.0 }, "geometry": { "type": "Point", "coordinates": [ 36.8590236, -1.2626872 ] } },
{ "type": "Feature", "properties": { "name": "Genesis Joy Project Institute", "amenities": "education", "prob_bin": 8.0 }, "geometry": { "type": "Point", "coordinates": [ 36.8546542, -1.2613593 ] } },
{ "type": "Feature", "properties": { "name": "Deut Learner Academy", "amenities": "education", "prob_bin": 8.0 }, "geometry": { "type": "Point", "coordinates": [ 36.8502352, -1.2625731 ] } },
{ "type": "Feature", "properties": { "name": "Deut Learner Academy", "amenities": "education", "prob_bin": 8.0 }, "geometry": { "type": "Point", "coordinates": [ 36.8501747, -1.2626823 ] } },
{ "type": "Feature", "properties": { "name": "Bour Algy dispensary", "amenities": "healthcare", "prob_bin": 3.0 }, "geometry": { "type": "Point", "coordinates": [ 39.6756032, -0.5057653 ] } },
{ "type": "Feature", "properties": { "name": "Magena Dispensary", "amenities": "healthcare", "prob_bin": 8.0 }, "geometry": { "type": "Point", "coordinates": [ 34.7972654, -0.907147 ] } },
{ "type": "Feature", "properties": { "name": "Marikiti Tseikuru", "amenities": "markets_shopping", "prob_bin": 3.0 }, "geometry": { "type": "Point", "coordinates": [ 38.2174266, -0.3079174 ] } },
{ "type": "Feature", "properties": { "name": "Miritini Sheikh Said & Juma", "amenities": "healthcare", "prob_bin": 8.0 }, "geometry": { "type": "Point", "coordinates": [ 39.5905229, -4.0152876 ] } },
{ "type": "Feature", "properties": { "name": "St Mac's Clinic", "amenities": "healthcare", "prob_bin": 8.0 }, "geometry": { "type": "Point", "coordinates": [ 36.7977924, -1.3119267 ] } },
{ "type": "Feature", "properties": { "name": "Kianda Medical Center", "amenities": "healthcare", "prob_bin": 8.0 }, "geometry": { "type": "Point", "coordinates": [ 36.7759698, -1.3110416 ] } },
{ "type": "Feature", "properties": { "name": "St James Feeding Programme and Learning Project", "amenities": "education", "prob_bin": 8.0 }, "geometry": { "type": "Point", "coordinates": [ 36.8562392, -1.2651587 ] } },
{ "type": "Feature", "properties": { "name": "Mathare Special Training Centre", "amenities": "education", "prob_bin": 8.0 }, "geometry": { "type": "Point", "coordinates": [ 36.8653216, -1.2611937 ] } },
{ "type": "Feature", "properties": { "name": null, "amenities": "markets_shopping", "prob_bin": 5.0 }, "geometry": { "type": "Point", "coordinates": [ 40.0134673, -3.3515214 ] } },
{ "type": "Feature", "properties": { "name": "Hope Compassion Center", "amenities": "education", "prob_bin": 8.0 }, "geometry": { "type": "Point", "coordinates": [ 36.8592301, -1.2626668 ] } },
{ "type": "Feature", "properties": { "name": "Mayaka Healthcare Center", "amenities": "healthcare", "prob_bin": 8.0 }, "geometry": { "type": "Point", "coordinates": [ 34.7969089, -0.9110472 ] } },
{ "type": "Feature", "properties": { "name": "reach international school", "amenities": "education", "prob_bin": 8.0 }, "geometry": { "type": "Point", "coordinates": [ 37.5712456, 0.3273249 ] } },
{ "type": "Feature", "properties": { "name": "Destiny Junior Education Centre", "amenities": "education", "prob_bin": 8.0 }, "geometry": { "type": "Point", "coordinates": [ 36.8541903, -1.2643702 ] } },
{ "type": "Feature", "properties": { "name": "Aga Khan Clinic Embakasi", "amenities": "healthcare", "prob_bin": 8.0 }, "geometry": { "type": "Point", "coordinates": [ 36.8973899, -1.3189242 ] } },
{ "type": "Feature", "properties": { "name": "Liganwa Primary School", "amenities": "education", "prob_bin": 8.0 }, "geometry": { "type": "Point", "coordinates": [ 34.2656999, 0.1117267 ] } },
{ "type": "Feature", "properties": { "name": "BarOlengo", "amenities": "markets_shopping", "prob_bin": 8.0 }, "geometry": { "type": "Point", "coordinates": [ 34.2672234, 0.1177979 ] } },
{ "type": "Feature", "properties": { "name": "Jusama Community School", "amenities": "education", "prob_bin": 8.0 }, "geometry": { "type": "Point", "coordinates": [ 36.8677284, -1.2576175 ] } },
{ "type": "Feature", "properties": { "name": "Masewani Community Educational Center", "amenities": "education", "prob_bin": 8.0 }, "geometry": { "type": "Point", "coordinates": [ 36.8675667, -1.2610095 ] } },
{ "type": "Feature", "properties": { "name": "Kibera Girls Soccer Academy", "amenities": "education", "prob_bin": 8.0 }, "geometry": { "type": "Point", "coordinates": [ 36.7869611, -1.311009 ] } },
{ "type": "Feature", "properties": { "name": "Mukelenzuni Primary School", "amenities": "education", "prob_bin": 6.0 }, "geometry": { "type": "Point", "coordinates": [ 37.8164588, -1.4865118 ] } },
{ "type": "Feature", "properties": { "name": "Kenya Muslim Academy", "amenities": "education", "prob_bin": 8.0 }, "geometry": { "type": "Point", "coordinates": [ 36.8782733, -1.2564269 ] } },
{ "type": "Feature", "properties": { "name": "Brainiac High school", "amenities": "education", "prob_bin": 8.0 }, "geometry": { "type": "Point", "coordinates": [ 36.8747639, -1.2615506 ] } },
{ "type": "Feature", "properties": { "name": "Little Bees Children Self Help Group", "amenities": "education", "prob_bin": 8.0 }, "geometry": { "type": "Point", "coordinates": [ 36.8695415, -1.2563802 ] } },
{ "type": "Feature", "properties": { "name": "The Affluent High School", "amenities": "education", "prob_bin": 8.0 }, "geometry": { "type": "Point", "coordinates": [ 36.8760352, -1.2603145 ] } },
{ "type": "Feature", "properties": { "name": "Bridge Star Academy", "amenities": "education", "prob_bin": 8.0 }, "geometry": { "type": "Point", "coordinates": [ 36.874874, -1.258524 ] } },
{ "type": "Feature", "properties": { "name": "Angels of Mercy Educational Centre", "amenities": "education", "prob_bin": 8.0 }, "geometry": { "type": "Point", "coordinates": [ 36.8756455, -1.2586605 ] } },
{ "type": "Feature", "properties": { "name": "Mtsamviani primary School", "amenities": "education", "prob_bin": 5.0 }, "geometry": { "type": "Point", "coordinates": [ 39.2342603, -4.2689019 ] } },
{ "type": "Feature", "properties": { "name": "Mtsamviani secondary School", "amenities": "education", "prob_bin": 5.0 }, "geometry": { "type": "Point", "coordinates": [ 39.2350798, -4.2717687 ] } },
{ "type": "Feature", "properties": { "name": "Mbegani Dispensary", "amenities": "healthcare", "prob_bin": 5.0 }, "geometry": { "type": "Point", "coordinates": [ 39.1871902, -4.3562395 ] } },
{ "type": "Feature", "properties": { "name": "Buburi Primary School", "amenities": "education", "prob_bin": 8.0 }, "geometry": { "type": "Point", "coordinates": [ 34.0881155, 0.2096992 ] } },
{ "type": "Feature", "properties": { "name": "Nandereka Primary School", "amenities": "education", "prob_bin": 8.0 }, "geometry": { "type": "Point", "coordinates": [ 34.087917, 0.2297995 ] } },
{ "type": "Feature", "properties": { "name": "Bukiri Primary School", "amenities": "education", "prob_bin": 8.0 }, "geometry": { "type": "Point", "coordinates": [ 34.0894351, 0.2354267 ] } },
{ "type": "Feature", "properties": { "name": "Daraja Mbili Market", "amenities": "markets_shopping", "prob_bin": 8.0 }, "geometry": { "type": "Point", "coordinates": [ 34.7642373, -0.6665466 ] } },
{ "type": "Feature", "properties": { "name": "Neighborhood Shopping Centre", "amenities": "markets_shopping", "prob_bin": 5.0 }, "geometry": { "type": "Point", "coordinates": [ 35.6207273, 3.1255408 ] } },
{ "type": "Feature", "properties": { "name": "Lumani Market", "amenities": "markets_shopping", "prob_bin": 8.0 }, "geometry": { "type": "Point", "coordinates": [ 34.7192584, 0.4884865 ] } },
{ "type": "Feature", "properties": { "name": "Lumani Market", "amenities": "markets_shopping", "prob_bin": 8.0 }, "geometry": { "type": "Point", "coordinates": [ 34.7042641, 0.4891628 ] } },
{ "type": "Feature", "properties": { "name": "Kimobo F.Y.I. Primary School", "amenities": "education", "prob_bin": 8.0 }, "geometry": { "type": "Point", "coordinates": [ 34.6898676, 0.8364654 ] } },
{ "type": "Feature", "properties": { "name": "St. Joseph's Academy", "amenities": "education", "prob_bin": 8.0 }, "geometry": { "type": "Point", "coordinates": [ 34.7462132, 0.2784185 ] } },
{ "type": "Feature", "properties": { "name": "Lutonyi Market", "amenities": "markets_shopping", "prob_bin": 8.0 }, "geometry": { "type": "Point", "coordinates": [ 34.7404436, 0.2792367 ] } },
{ "type": "Feature", "properties": { "name": "St. Ignatius Boys High School", "amenities": "education", "prob_bin": 8.0 }, "geometry": { "type": "Point", "coordinates": [ 34.7646306, 0.2208707 ] } },
{ "type": "Feature", "properties": { "name": "Weligina", "amenities": "markets_shopping", "prob_bin": 8.0 }, "geometry": { "type": "Point", "coordinates": [ 34.7083345, 0.112361 ] } },
{ "type": "Feature", "properties": { "name": "Kalel Trading Centre", "amenities": "markets_shopping", "prob_bin": 5.0 }, "geometry": { "type": "Point", "coordinates": [ 35.6650837, 0.5810801 ] } },
{ "type": "Feature", "properties": { "name": "Kipsoit primary school", "amenities": "education", "prob_bin": 5.0 }, "geometry": { "type": "Point", "coordinates": [ 35.6507923, 0.514614 ] } },
{ "type": "Feature", "properties": { "name": "ST. John academy", "amenities": "education", "prob_bin": 5.0 }, "geometry": { "type": "Point", "coordinates": [ 35.6536169, 0.51136 ] } },
{ "type": "Feature", "properties": { "name": "Kakwane Primary School", "amenities": "education", "prob_bin": 5.0 }, "geometry": { "type": "Point", "coordinates": [ 35.6280339, 0.5194983 ] } },
{ "type": "Feature", "properties": { "name": "Kambi Nyasi Primary", "amenities": "education", "prob_bin": 5.0 }, "geometry": { "type": "Point", "coordinates": [ 35.7076314, 0.7665132 ] } },
{ "type": "Feature", "properties": { "name": "Kapyemit Primary School", "amenities": "education", "prob_bin": 5.0 }, "geometry": { "type": "Point", "coordinates": [ 35.6637958, 0.5327034 ] } },
{ "type": "Feature", "properties": { "name": "Town Church Fellowship Academy", "amenities": "education", "prob_bin": 8.0 }, "geometry": { "type": "Point", "coordinates": [ 35.9810596, 0.4722162 ] } },
{ "type": "Feature", "properties": { "name": "ELCK Pusian Primary School", "amenities": "education", "prob_bin": 8.0 }, "geometry": { "type": "Point", "coordinates": [ 35.2610283, 1.4418532 ] } },
{ "type": "Feature", "properties": { "name": "Akimultin ECDE Centre", "amenities": "education", "prob_bin": 8.0 }, "geometry": { "type": "Point", "coordinates": [ 35.14291, 1.38915 ] } },
{ "type": "Feature", "properties": { "name": "Kokpech ECDE Center", "amenities": "education", "prob_bin": 8.0 }, "geometry": { "type": "Point", "coordinates": [ 35.135465, 1.4097333 ] } },
{ "type": "Feature", "properties": { "name": "Nakwamoru Health Centre", "amenities": "healthcare", "prob_bin": 3.0 }, "geometry": { "type": "Point", "coordinates": [ 35.4313988, 2.0557489 ] } },
{ "type": "Feature", "properties": { "name": "Chesiro S.A. Primary School", "amenities": "education", "prob_bin": null }, "geometry": { "type": "Point", "coordinates": [ 34.4641013, 0.8486776 ] } },
{ "type": "Feature", "properties": { "name": "Kisitet ECD", "amenities": "education", "prob_bin": 5.0 }, "geometry": { "type": "Point", "coordinates": [ 35.6733621, 0.7693455 ] } },
{ "type": "Feature", "properties": { "name": "Lukhokwe primary school", "amenities": "education", "prob_bin": 8.0 }, "geometry": { "type": "Point", "coordinates": [ 34.8390899, 0.7946886 ] } },
{ "type": "Feature", "properties": { "name": "Maliki", "amenities": "markets_shopping", "prob_bin": 8.0 }, "geometry": { "type": "Point", "coordinates": [ 34.848667, 0.8084957 ] } },
{ "type": "Feature", "properties": { "name": "Bilibili primary", "amenities": "education", "prob_bin": 8.0 }, "geometry": { "type": "Point", "coordinates": [ 34.8075031, 0.781173 ] } },
{ "type": "Feature", "properties": { "name": "St. Peter's Secondary School", "amenities": "education", "prob_bin": 8.0 }, "geometry": { "type": "Point", "coordinates": [ 34.5498375, 0.53388 ] } },
{ "type": "Feature", "properties": { "name": "Moi Primary School", "amenities": "education", "prob_bin": 8.0 }, "geometry": { "type": "Point", "coordinates": [ 34.5601962, 0.5635488 ] } },
{ "type": "Feature", "properties": { "name": "Kibabii Market", "amenities": "markets_shopping", "prob_bin": 8.0 }, "geometry": { "type": "Point", "coordinates": [ 34.5258995, 0.6184666 ] } },
{ "type": "Feature", "properties": { "name": "Kisiwa Market", "amenities": "markets_shopping", "prob_bin": 8.0 }, "geometry": { "type": "Point", "coordinates": [ 34.5533656, 0.6525446 ] } },
{ "type": "Feature", "properties": { "name": null, "amenities": "markets_shopping", "prob_bin": 8.0 }, "geometry": { "type": "Point", "coordinates": [ 34.5763656, 0.6771469 ] } },
{ "type": "Feature", "properties": { "name": "Kuborom Trading Center", "amenities": "education", "prob_bin": null }, "geometry": { "type": "Point", "coordinates": [ 34.4580778, 0.8572488 ] } },
{ "type": "Feature", "properties": { "name": "Mateka Nursery School", "amenities": "education", "prob_bin": 8.0 }, "geometry": { "type": "Point", "coordinates": [ 34.5499222, 0.813121 ] } },
{ "type": "Feature", "properties": { "name": "R.C. Cheptoror Primary School", "amenities": "education", "prob_bin": 8.0 }, "geometry": { "type": "Point", "coordinates": [ 34.5908974, 0.8365738 ] } },
{ "type": "Feature", "properties": { "name": "Kibumet Primary School", "amenities": "education", "prob_bin": 8.0 }, "geometry": { "type": "Point", "coordinates": [ 34.5949892, 0.8549892 ] } },
{ "type": "Feature", "properties": { "name": "Namarambi Primary", "amenities": "education", "prob_bin": 8.0 }, "geometry": { "type": "Point", "coordinates": [ 34.7670539, 0.7271859 ] } },
{ "type": "Feature", "properties": { "name": "Lugulu Day Primary", "amenities": "education", "prob_bin": 8.0 }, "geometry": { "type": "Point", "coordinates": [ 34.7527792, 0.6638635 ] } },
{ "type": "Feature", "properties": { "name": "Lugulu Day Secondary", "amenities": "education", "prob_bin": 8.0 }, "geometry": { "type": "Point", "coordinates": [ 34.7526858, 0.6645173 ] } },
{ "type": "Feature", "properties": { "name": "Misikhu", "amenities": "markets_shopping", "prob_bin": 8.0 }, "geometry": { "type": "Point", "coordinates": [ 34.7547937, 0.7147578 ] } },
{ "type": "Feature", "properties": { "name": "St Louice Medical Clinic and Laboratory Services", "amenities": "healthcare", "prob_bin": null }, "geometry": { "type": "Point", "coordinates": [ 34.1257065, 0.5361389 ] } },
{ "type": "Feature", "properties": { "name": "Ngurunit Secondary School", "amenities": "education", "prob_bin": 1.0 }, "geometry": { "type": "Point", "coordinates": [ 37.3245043, 1.7417688 ] } },
{ "type": "Feature", "properties": { "name": "Kaunda Market", "amenities": "markets_shopping", "prob_bin": 8.0 }, "geometry": { "type": "Point", "coordinates": [ 34.6508757, 0.3727811 ] } },
{ "type": "Feature", "properties": { "name": "Nderema Market", "amenities": "markets_shopping", "prob_bin": 8.0 }, "geometry": { "type": "Point", "coordinates": [ 34.6306728, 0.3630632 ] } },
{ "type": "Feature", "properties": { "name": "Nyaporo Market", "amenities": "markets_shopping", "prob_bin": 8.0 }, "geometry": { "type": "Point", "coordinates": [ 34.6277362, 0.330991 ] } },
{ "type": "Feature", "properties": { "name": "Shiyunzu Market", "amenities": "markets_shopping", "prob_bin": 8.0 }, "geometry": { "type": "Point", "coordinates": [ 34.6976766, 0.291255 ] } },
{ "type": "Feature", "properties": { "name": "Sivilie Friends Primary School", "amenities": "education", "prob_bin": 8.0 }, "geometry": { "type": "Point", "coordinates": [ 34.695789, 0.4678426 ] } },
{ "type": "Feature", "properties": { "name": "Womuchilo", "amenities": "markets_shopping", "prob_bin": 8.0 }, "geometry": { "type": "Point", "coordinates": [ 34.6557326, 0.1167861 ] } },
{ "type": "Feature", "properties": { "name": "Bar B", "amenities": "markets_shopping", "prob_bin": 8.0 }, "geometry": { "type": "Point", "coordinates": [ 34.4380827, 0.0514061 ] } },
{ "type": "Feature", "properties": { "name": "Mutumbu Market", "amenities": "markets_shopping", "prob_bin": 8.0 }, "geometry": { "type": "Point", "coordinates": [ 34.4491022, 0.1156259 ] } },
{ "type": "Feature", "properties": { "name": "Eregi", "amenities": "markets_shopping", "prob_bin": 8.0 }, "geometry": { "type": "Point", "coordinates": [ 34.7034609, 0.1521147 ] } },
{ "type": "Feature", "properties": { "name": "Simenya Secondary School", "amenities": "education", "prob_bin": 8.0 }, "geometry": { "type": "Point", "coordinates": [ 34.3614869, 0.1532074 ] } },
{ "type": "Feature", "properties": { "name": "Mlimani Centre", "amenities": "markets_shopping", "prob_bin": 8.0 }, "geometry": { "type": "Point", "coordinates": [ 34.3716416, 0.4718158 ] } },
{ "type": "Feature", "properties": { "name": "Sianda Junction Market", "amenities": "markets_shopping", "prob_bin": 8.0 }, "geometry": { "type": "Point", "coordinates": [ 34.3743918, 0.4808708 ] } },
{ "type": "Feature", "properties": { "name": "Soysambu", "amenities": "markets_shopping", "prob_bin": 8.0 }, "geometry": { "type": "Point", "coordinates": [ 35.1028106, 0.7808567 ] } },
{ "type": "Feature", "properties": { "name": "St Elizabeth Soysambu Primary School", "amenities": "education", "prob_bin": 8.0 }, "geometry": { "type": "Point", "coordinates": [ 35.1053426, 0.7780889 ] } },
{ "type": "Feature", "properties": { "name": "St Augustines Soysambu Secondary School", "amenities": "education", "prob_bin": 8.0 }, "geometry": { "type": "Point", "coordinates": [ 35.1041357, 0.7739265 ] } },
{ "type": "Feature", "properties": { "name": "Mtondo Inn Shopping Centre", "amenities": "markets_shopping", "prob_bin": 8.0 }, "geometry": { "type": "Point", "coordinates": [ 35.0037626, 0.9918872 ] } },
{ "type": "Feature", "properties": { "name": "Cranes Educational Centre", "amenities": "education", "prob_bin": 8.0 }, "geometry": { "type": "Point", "coordinates": [ 34.9596368, 0.9807632 ] } },
{ "type": "Feature", "properties": { "name": "St.  Josephs Girls High School", "amenities": "education", "prob_bin": 8.0 }, "geometry": { "type": "Point", "coordinates": [ 34.9726478, 0.9795454 ] } },
{ "type": "Feature", "properties": { "name": "Kiungani primary school", "amenities": "education", "prob_bin": 8.0 }, "geometry": { "type": "Point", "coordinates": [ 34.9519539, 0.94745 ] } },
{ "type": "Feature", "properties": { "name": "Masaba Primary School", "amenities": "education", "prob_bin": 8.0 }, "geometry": { "type": "Point", "coordinates": [ 34.9232133, 0.8942593 ] } },
{ "type": "Feature", "properties": { "name": "Milima Secondary school", "amenities": "education", "prob_bin": 8.0 }, "geometry": { "type": "Point", "coordinates": [ 34.8677982, 0.8101458 ] } },
{ "type": "Feature", "properties": { "name": "Milima primary school", "amenities": "education", "prob_bin": 8.0 }, "geometry": { "type": "Point", "coordinates": [ 34.8681914, 0.8122266 ] } },
{ "type": "Feature", "properties": { "name": "Mucharage", "amenities": "markets_shopping", "prob_bin": 8.0 }, "geometry": { "type": "Point", "coordinates": [ 34.852795, 0.8183754 ] } },
{ "type": "Feature", "properties": { "name": "Namanda primary school", "amenities": "education", "prob_bin": 8.0 }, "geometry": { "type": "Point", "coordinates": [ 34.8526172, 0.8259611 ] } },
{ "type": "Feature", "properties": { "name": "Babaton", "amenities": "markets_shopping", "prob_bin": 8.0 }, "geometry": { "type": "Point", "coordinates": [ 34.868414, 0.8606934 ] } },
{ "type": "Feature", "properties": { "name": "Maili Saba, Mois' Bridge", "amenities": "markets_shopping", "prob_bin": 8.0 }, "geometry": { "type": "Point", "coordinates": [ 35.0648702, 0.9520612 ] } },
{ "type": "Feature", "properties": { "name": "Itenn Vocation Training Centre", "amenities": "education", "prob_bin": 5.0 }, "geometry": { "type": "Point", "coordinates": [ 35.5102616, 0.6677325 ] } },
{ "type": "Feature", "properties": { "name": "Iten Primary School", "amenities": "education", "prob_bin": 5.0 }, "geometry": { "type": "Point", "coordinates": [ 35.5071378, 0.667441 ] } },
{ "type": "Feature", "properties": { "name": "Sisenye", "amenities": "markets_shopping", "prob_bin": null }, "geometry": { "type": "Point", "coordinates": [ 33.9975043, 0.1606896 ] } },
{ "type": "Feature", "properties": { "name": "Namgoi", "amenities": "markets_shopping", "prob_bin": 7.0 }, "geometry": { "type": "Point", "coordinates": [ 35.1195142, 0.2025512 ] } },
{ "type": "Feature", "properties": { "name": "Kimkung Kipyeto A.I.C. Primary School", "amenities": "education", "prob_bin": 8.0 }, "geometry": { "type": "Point", "coordinates": [ 34.6692781, 0.8543438 ] } },
{ "type": "Feature", "properties": { "name": "Busia Boarder Primary School", "amenities": "education", "prob_bin": 8.0 }, "geometry": { "type": "Point", "coordinates": [ 34.0884385, 0.4653064 ] } },
{ "type": "Feature", "properties": { "name": null, "amenities": "education", "prob_bin": 8.0 }, "geometry": { "type": "Point", "coordinates": [ 34.0889361, 0.4645301 ] } },
{ "type": "Feature", "properties": { "name": "Segero Market Transformer", "amenities": "markets_shopping", "prob_bin": null }, "geometry": { "type": "Point", "coordinates": [ 34.2493127, 0.5057303 ] } },
{ "type": "Feature", "properties": { "name": "Okimaru Market", "amenities": "markets_shopping", "prob_bin": null }, "geometry": { "type": "Point", "coordinates": [ 34.4172408, 0.6859597 ] } },
{ "type": "Feature", "properties": { "name": "Angaro Market", "amenities": "markets_shopping", "prob_bin": null }, "geometry": { "type": "Point", "coordinates": [ 34.4002876, 0.7303644 ] } },
{ "type": "Feature", "properties": { "name": "Chesiywo S.A. Primary School", "amenities": "education", "prob_bin": 8.0 }, "geometry": { "type": "Point", "coordinates": [ 34.5347541, 0.8115839 ] } },
{ "type": "Feature", "properties": { "name": "Munanda Primary School", "amenities": "education", "prob_bin": 8.0 }, "geometry": { "type": "Point", "coordinates": [ 37.5287961, 0.2174738 ] } },
{ "type": "Feature", "properties": { "name": "Bukadanyi Market", "amenities": "markets_shopping", "prob_bin": 8.0 }, "geometry": { "type": "Point", "coordinates": [ 34.3275495, 0.4446058 ] } },
{ "type": "Feature", "properties": { "name": "Malanga Market", "amenities": "markets_shopping", "prob_bin": 8.0 }, "geometry": { "type": "Point", "coordinates": [ 34.2850781, 0.4134757 ] } },
{ "type": "Feature", "properties": { "name": "Abendo", "amenities": "markets_shopping", "prob_bin": 8.0 }, "geometry": { "type": "Point", "coordinates": [ 34.3184724, 0.3763521 ] } },
{ "type": "Feature", "properties": { "name": "Esivembe", "amenities": "markets_shopping", "prob_bin": 8.0 }, "geometry": { "type": "Point", "coordinates": [ 34.3152194, 0.4078061 ] } },
{ "type": "Feature", "properties": { "name": "Lugulu", "amenities": "markets_shopping", "prob_bin": 8.0 }, "geometry": { "type": "Point", "coordinates": [ 34.3038634, 0.3933966 ] } },
{ "type": "Feature", "properties": { "name": "Benga Market", "amenities": "markets_shopping", "prob_bin": 8.0 }, "geometry": { "type": "Point", "coordinates": [ 34.3166762, 0.4087292 ] } },
{ "type": "Feature", "properties": { "name": "Lwanyange", "amenities": "markets_shopping", "prob_bin": 8.0 }, "geometry": { "type": "Point", "coordinates": [ 34.2847322, 0.4261738 ] } },
{ "type": "Feature", "properties": { "name": "Maolo Centre", "amenities": "markets_shopping", "prob_bin": 8.0 }, "geometry": { "type": "Point", "coordinates": [ 34.3261158, 0.4252602 ] } },
{ "type": "Feature", "properties": { "name": "Bar Ober", "amenities": "markets_shopping", "prob_bin": 8.0 }, "geometry": { "type": "Point", "coordinates": [ 34.2884679, 0.3057897 ] } },
{ "type": "Feature", "properties": { "name": "Butula", "amenities": "markets_shopping", "prob_bin": 8.0 }, "geometry": { "type": "Point", "coordinates": [ 34.3450785, 0.3436242 ] } },
{ "type": "Feature", "properties": { "name": "Sihanikha Primary School", "amenities": "education", "prob_bin": 8.0 }, "geometry": { "type": "Point", "coordinates": [ 34.6611835, 0.3723572 ] } },
{ "type": "Feature", "properties": { "name": "St. Jude Day Care Nursery and Primary School", "amenities": "education", "prob_bin": 8.0 }, "geometry": { "type": "Point", "coordinates": [ 34.0909012, 0.4698567 ] } },
{ "type": "Feature", "properties": { "name": "Kemodo Market", "amenities": "markets_shopping", "prob_bin": 8.0 }, "geometry": { "type": "Point", "coordinates": [ 34.1855845, 0.4680945 ] } },
{ "type": "Feature", "properties": { "name": "Mlango Kumi Market", "amenities": "markets_shopping", "prob_bin": 8.0 }, "geometry": { "type": "Point", "coordinates": [ 34.1304126, 0.4530283 ] } },
{ "type": "Feature", "properties": { "name": "Cheptoror Primary School", "amenities": "education", "prob_bin": 8.0 }, "geometry": { "type": "Point", "coordinates": [ 34.5907231, 0.8389176 ] } },
{ "type": "Feature", "properties": { "name": "Tendet (Tentet) R.C. Primary School", "amenities": "education", "prob_bin": 8.0 }, "geometry": { "type": "Point", "coordinates": [ 34.7056365, 0.8167297 ] } },
{ "type": "Feature", "properties": { "name": "IIEC Office", "amenities": "education", "prob_bin": 8.0 }, "geometry": { "type": "Point", "coordinates": [ 34.7169757, 0.8397472 ] } },
{ "type": "Feature", "properties": { "name": "Mulukhoni Market", "amenities": "markets_shopping", "prob_bin": 8.0 }, "geometry": { "type": "Point", "coordinates": [ 34.0685593, 0.2583715 ] } },
{ "type": "Feature", "properties": { "name": "Gjo Market", "amenities": "markets_shopping", "prob_bin": 8.0 }, "geometry": { "type": "Point", "coordinates": [ 34.1187484, 0.2786592 ] } },
{ "type": "Feature", "properties": { "name": "Masiebi/Kwa Mariana", "amenities": "markets_shopping", "prob_bin": 8.0 }, "geometry": { "type": "Point", "coordinates": [ 34.1038821, 0.2699004 ] } },
{ "type": "Feature", "properties": { "name": "Sidiikhe", "amenities": "markets_shopping", "prob_bin": 8.0 }, "geometry": { "type": "Point", "coordinates": [ 34.0845049, 0.3067771 ] } },
{ "type": "Feature", "properties": { "name": "Namasali Primary School", "amenities": "education", "prob_bin": 8.0 }, "geometry": { "type": "Point", "coordinates": [ 34.026852, 0.2270272 ] } },
{ "type": "Feature", "properties": { "name": "Nambengele Market", "amenities": "markets_shopping", "prob_bin": 8.0 }, "geometry": { "type": "Point", "coordinates": [ 34.0627578, 0.1594762 ] } },
{ "type": "Feature", "properties": { "name": "Budalang'i Market", "amenities": "markets_shopping", "prob_bin": 8.0 }, "geometry": { "type": "Point", "coordinates": [ 34.0295512, 0.1362108 ] } },
{ "type": "Feature", "properties": { "name": "Magombe Market", "amenities": "markets_shopping", "prob_bin": 8.0 }, "geometry": { "type": "Point", "coordinates": [ 34.0460592, 0.0995603 ] } },
{ "type": "Feature", "properties": { "name": "Munyinyi", "amenities": "markets_shopping", "prob_bin": 8.0 }, "geometry": { "type": "Point", "coordinates": [ 34.0673, 0.2052263 ] } },
{ "type": "Feature", "properties": { "name": "Budwong'i Market", "amenities": "markets_shopping", "prob_bin": 8.0 }, "geometry": { "type": "Point", "coordinates": [ 34.0376852, 0.2350711 ] } },
{ "type": "Feature", "properties": { "name": "Malinya", "amenities": "markets_shopping", "prob_bin": 8.0 }, "geometry": { "type": "Point", "coordinates": [ 34.731627, 0.1976128 ] } },
{ "type": "Feature", "properties": { "name": "Khayega Primary School", "amenities": "education", "prob_bin": 8.0 }, "geometry": { "type": "Point", "coordinates": [ 34.7728315, 0.2069761 ] } },
{ "type": "Feature", "properties": { "name": "Shibuye Shopping Centre", "amenities": "markets_shopping", "prob_bin": 8.0 }, "geometry": { "type": "Point", "coordinates": [ 34.8124854, 0.221348 ] } },
{ "type": "Feature", "properties": { "name": "Mayenje Secondary School", "amenities": "education", "prob_bin": 8.0 }, "geometry": { "type": "Point", "coordinates": [ 34.1080635, 0.4164356 ] } },
{ "type": "Feature", "properties": { "name": "Msafiri Market", "amenities": "markets_shopping", "prob_bin": 8.0 }, "geometry": { "type": "Point", "coordinates": [ 34.1488828, 0.4311904 ] } },
{ "type": "Feature", "properties": { "name": "Esirisia Market", "amenities": "markets_shopping", "prob_bin": 8.0 }, "geometry": { "type": "Point", "coordinates": [ 34.1648644, 0.4310562 ] } },
{ "type": "Feature", "properties": { "name": "Highrock Market", "amenities": "markets_shopping", "prob_bin": 8.0 }, "geometry": { "type": "Point", "coordinates": [ 34.1248961, 0.4601943 ] } },
{ "type": "Feature", "properties": { "name": "Luma Eastern college", "amenities": "education", "prob_bin": 8.0 }, "geometry": { "type": "Point", "coordinates": [ 34.0977912, 0.4706307 ] } },
{ "type": "Feature", "properties": { "name": "Alice Hope Academy", "amenities": "education", "prob_bin": 8.0 }, "geometry": { "type": "Point", "coordinates": [ 34.2879298, 0.1794342 ] } },
{ "type": "Feature", "properties": { "name": "(NYATI)", "amenities": "education", "prob_bin": 8.0 }, "geometry": { "type": "Point", "coordinates": [ 34.3006897, 0.1861418 ] } },
{ "type": "Feature", "properties": { "name": "St Paul's Health Centre", "amenities": "healthcare", "prob_bin": 8.0 }, "geometry": { "type": "Point", "coordinates": [ 34.2936184, 0.1630007 ] } },
{ "type": "Feature", "properties": { "name": "Mbaga", "amenities": "markets_shopping", "prob_bin": 8.0 }, "geometry": { "type": "Point", "coordinates": [ 34.2765147, 0.0811644 ] } },
{ "type": "Feature", "properties": { "name": "Got Oyenga", "amenities": "markets_shopping", "prob_bin": 8.0 }, "geometry": { "type": "Point", "coordinates": [ 34.3322941, 0.1192674 ] } },
{ "type": "Feature", "properties": { "name": "Cornerstone Academy", "amenities": "education", "prob_bin": 5.0 }, "geometry": { "type": "Point", "coordinates": [ 34.8674924, 3.7028598 ] } },
{ "type": "Feature", "properties": { "name": "Randago", "amenities": "markets_shopping", "prob_bin": 8.0 }, "geometry": { "type": "Point", "coordinates": [ 34.2914443, 0.0148782 ] } },
{ "type": "Feature", "properties": { "name": "Ondero", "amenities": "markets_shopping", "prob_bin": 8.0 }, "geometry": { "type": "Point", "coordinates": [ 34.35275, 0.0990004 ] } },
{ "type": "Feature", "properties": { "name": "Koyogo", "amenities": "markets_shopping", "prob_bin": 8.0 }, "geometry": { "type": "Point", "coordinates": [ 34.3364671, 0.0791181 ] } },
{ "type": "Feature", "properties": { "name": "Umala", "amenities": "markets_shopping", "prob_bin": 8.0 }, "geometry": { "type": "Point", "coordinates": [ 34.3549333, 0.0708952 ] } },
{ "type": "Feature", "properties": { "name": "Umina Secondary School", "amenities": "education", "prob_bin": 8.0 }, "geometry": { "type": "Point", "coordinates": [ 34.2444175, 0.1682499 ] } },
{ "type": "Feature", "properties": { "name": "Faith Church of Christ ECD Centre", "amenities": "education", "prob_bin": 8.0 }, "geometry": { "type": "Point", "coordinates": [ 34.2555465, 0.1690541 ] } },
{ "type": "Feature", "properties": { "name": "Ulwani Primary School", "amenities": "education", "prob_bin": 8.0 }, "geometry": { "type": "Point", "coordinates": [ 34.2993914, 0.163348 ] } },
{ "type": "Feature", "properties": { "name": "kambi ya juu primary", "amenities": "education", "prob_bin": 8.0 }, "geometry": { "type": "Point", "coordinates": [ 37.5529683, 0.3340558 ] } },
{ "type": "Feature", "properties": { "name": "Maua Girl's Secondary School", "amenities": "education", "prob_bin": 8.0 }, "geometry": { "type": "Point", "coordinates": [ 37.9395993, 0.2337216 ] } },
{ "type": "Feature", "properties": { "name": "Nyawita market", "amenities": "markets_shopping", "prob_bin": 8.0 }, "geometry": { "type": "Point", "coordinates": [ 34.1718384, 0.1404973 ] } },
{ "type": "Feature", "properties": { "name": "Nyalueny", "amenities": "markets_shopping", "prob_bin": 8.0 }, "geometry": { "type": "Point", "coordinates": [ 34.1457363, 0.1774535 ] } },
{ "type": "Feature", "properties": { "name": "Luhano", "amenities": "markets_shopping", "prob_bin": 8.0 }, "geometry": { "type": "Point", "coordinates": [ 34.1681873, 0.1764648 ] } },
{ "type": "Feature", "properties": { "name": "Nyaholo market", "amenities": "markets_shopping", "prob_bin": 8.0 }, "geometry": { "type": "Point", "coordinates": [ 34.1569275, 0.1660878 ] } },
{ "type": "Feature", "properties": { "name": "Siranga Market", "amenities": "markets_shopping", "prob_bin": 8.0 }, "geometry": { "type": "Point", "coordinates": [ 34.2104254, 0.1787194 ] } },
{ "type": "Feature", "properties": { "name": "Kamondi Business Centre", "amenities": "markets_shopping", "prob_bin": 8.0 }, "geometry": { "type": "Point", "coordinates": [ 34.240846, 0.162457 ] } },
{ "type": "Feature", "properties": { "name": "Kapkisei A.I.C. Primary School", "amenities": "education", "prob_bin": 8.0 }, "geometry": { "type": "Point", "coordinates": [ 34.5666591, 0.8610791 ] } },
{ "type": "Feature", "properties": { "name": "Leparua primary", "amenities": "education", "prob_bin": 6.0 }, "geometry": { "type": "Point", "coordinates": [ 37.4367828, 0.3087779 ] } },
{ "type": "Feature", "properties": { "name": "Kabukwo Primary School", "amenities": "education", "prob_bin": 8.0 }, "geometry": { "type": "Point", "coordinates": [ 34.5733045, 0.8375226 ] } },
{ "type": "Feature", "properties": { "name": "Junction Primary School", "amenities": "education", "prob_bin": 3.0 }, "geometry": { "type": "Point", "coordinates": [ 40.1850595, 0.3413979 ] } },
{ "type": "Feature", "properties": { "name": "Owila", "amenities": "markets_shopping", "prob_bin": 8.0 }, "geometry": { "type": "Point", "coordinates": [ 34.4605223, 0.0495225 ] } },
{ "type": "Feature", "properties": { "name": "Sinaga Shopping Centre", "amenities": "markets_shopping", "prob_bin": 8.0 }, "geometry": { "type": "Point", "coordinates": [ 34.5145283, 0.0556795 ] } },
{ "type": "Feature", "properties": { "name": "Rabuor", "amenities": "markets_shopping", "prob_bin": 8.0 }, "geometry": { "type": "Point", "coordinates": [ 34.5609811, 0.0450977 ] } },
{ "type": "Feature", "properties": { "name": "Mahanga Market", "amenities": "markets_shopping", "prob_bin": 8.0 }, "geometry": { "type": "Point", "coordinates": [ 34.6612253, 0.0316705 ] } },
{ "type": "Feature", "properties": { "name": "Ebunangwe", "amenities": "markets_shopping", "prob_bin": 8.0 }, "geometry": { "type": "Point", "coordinates": [ 34.6566379, 0.0896887 ] } },
{ "type": "Feature", "properties": { "name": "Mundaha Market", "amenities": "markets_shopping", "prob_bin": 8.0 }, "geometry": { "type": "Point", "coordinates": [ 34.6436868, 0.1318763 ] } },
{ "type": "Feature", "properties": { "name": "Ebusiratsi Primary School", "amenities": "education", "prob_bin": 8.0 }, "geometry": { "type": "Point", "coordinates": [ 34.6376801, 0.0879614 ] } },
{ "type": "Feature", "properties": { "name": "Mwilonje", "amenities": "markets_shopping", "prob_bin": 8.0 }, "geometry": { "type": "Point", "coordinates": [ 34.6430112, 0.0717902 ] } },
{ "type": "Feature", "properties": { "name": "Buhuru Market", "amenities": "markets_shopping", "prob_bin": 8.0 }, "geometry": { "type": "Point", "coordinates": [ 34.4465009, 0.2566067 ] } },
{ "type": "Feature", "properties": { "name": "Minyowo", "amenities": "markets_shopping", "prob_bin": 8.0 }, "geometry": { "type": "Point", "coordinates": [ 34.4710231, 0.0510217 ] } },
{ "type": "Feature", "properties": { "name": "Musoli", "amenities": "markets_shopping", "prob_bin": 8.0 }, "geometry": { "type": "Point", "coordinates": [ 34.667233, 0.2039886 ] } },
{ "type": "Feature", "properties": { "name": "St Catherine's ECD Centre, Rang'ala", "amenities": "education", "prob_bin": 8.0 }, "geometry": { "type": "Point", "coordinates": [ 34.3400696, 0.1526823 ] } },
{ "type": "Feature", "properties": { "name": "Busibabwo", "amenities": "markets_shopping", "prob_bin": 8.0 }, "geometry": { "type": "Point", "coordinates": [ 34.2005566, 0.4112012 ] } },
{ "type": "Feature", "properties": { "name": "Ogina Market", "amenities": "markets_shopping", "prob_bin": 8.0 }, "geometry": { "type": "Point", "coordinates": [ 34.2342254, 0.3155875 ] } },
{ "type": "Feature", "properties": { "name": "Malambisie Market", "amenities": "markets_shopping", "prob_bin": 8.0 }, "geometry": { "type": "Point", "coordinates": [ 34.1868264, 0.3694884 ] } },
{ "type": "Feature", "properties": { "name": "Masengenyo", "amenities": "markets_shopping", "prob_bin": 8.0 }, "geometry": { "type": "Point", "coordinates": [ 34.2086513, 0.3718363 ] } },
{ "type": "Feature", "properties": { "name": "Chief Centre", "amenities": "markets_shopping", "prob_bin": 8.0 }, "geometry": { "type": "Point", "coordinates": [ 34.2746843, 0.3191523 ] } },
{ "type": "Feature", "properties": { "name": "Musoma", "amenities": "markets_shopping", "prob_bin": 8.0 }, "geometry": { "type": "Point", "coordinates": [ 34.2447142, 0.373798 ] } },
{ "type": "Feature", "properties": { "name": "Nyaluanda", "amenities": "markets_shopping", "prob_bin": 8.0 }, "geometry": { "type": "Point", "coordinates": [ 34.2313936, 0.3680358 ] } },
{ "type": "Feature", "properties": { "name": "Buluma Centre", "amenities": "markets_shopping", "prob_bin": 8.0 }, "geometry": { "type": "Point", "coordinates": [ 34.2517323, 0.464927 ] } },
{ "type": "Feature", "properties": { "name": "Ngunya Primary School", "amenities": "education", "prob_bin": 8.0 }, "geometry": { "type": "Point", "coordinates": [ 34.2715551, 0.1626725 ] } },
{ "type": "Feature", "properties": { "name": "Bumutiru", "amenities": "markets_shopping", "prob_bin": 8.0 }, "geometry": { "type": "Point", "coordinates": [ 34.2593853, 0.3670327 ] } },
{ "type": "Feature", "properties": { "name": "Sihai Shopping Centre", "amenities": "markets_shopping", "prob_bin": 8.0 }, "geometry": { "type": "Point", "coordinates": [ 34.2685881, 0.2490931 ] } },
{ "type": "Feature", "properties": { "name": "Teens Challenge Primary School", "amenities": "education", "prob_bin": null }, "geometry": { "type": "Point", "coordinates": [ 34.2575995, 0.6397747 ] } },
{ "type": "Feature", "properties": { "name": "Lukongo Primary School", "amenities": "education", "prob_bin": 8.0 }, "geometry": { "type": "Point", "coordinates": [ 34.4070837, 0.2349024 ] } },
{ "type": "Feature", "properties": { "name": "Wang'otong", "amenities": "markets_shopping", "prob_bin": 8.0 }, "geometry": { "type": "Point", "coordinates": [ 34.430101, 0.1932796 ] } },
{ "type": "Feature", "properties": { "name": "Butere Primary School", "amenities": "education", "prob_bin": 8.0 }, "geometry": { "type": "Point", "coordinates": [ 34.4963118, 0.2112846 ] } },
{ "type": "Feature", "properties": { "name": "Butere Boys Secondary School", "amenities": "education", "prob_bin": 8.0 }, "geometry": { "type": "Point", "coordinates": [ 34.4941508, 0.2100033 ] } },
{ "type": "Feature", "properties": { "name": "Mbosie", "amenities": "markets_shopping", "prob_bin": 8.0 }, "geometry": { "type": "Point", "coordinates": [ 34.3283127, 0.2217353 ] } },
{ "type": "Feature", "properties": { "name": "Sofia", "amenities": "markets_shopping", "prob_bin": 8.0 }, "geometry": { "type": "Point", "coordinates": [ 34.3635065, 0.2449498 ] } },
{ "type": "Feature", "properties": { "name": "Sabatia market", "amenities": "markets_shopping", "prob_bin": 8.0 }, "geometry": { "type": "Point", "coordinates": [ 34.5252439, 0.2309958 ] } },
{ "type": "Feature", "properties": { "name": "Khalaba Health Centre", "amenities": "healthcare", "prob_bin": 8.0 }, "geometry": { "type": "Point", "coordinates": [ 34.5484653, 0.4269771 ] } },
{ "type": "Feature", "properties": { "name": "Tingolo Market center", "amenities": "markets_shopping", "prob_bin": 8.0 }, "geometry": { "type": "Point", "coordinates": [ 34.3737901, 0.3374703 ] } },
{ "type": "Feature", "properties": { "name": "Ogallo Market", "amenities": "markets_shopping", "prob_bin": 8.0 }, "geometry": { "type": "Point", "coordinates": [ 34.401254, 0.3605907 ] } },
{ "type": "Feature", "properties": { "name": "Bungasi", "amenities": "markets_shopping", "prob_bin": 8.0 }, "geometry": { "type": "Point", "coordinates": [ 34.3990554, 0.2010816 ] } },
{ "type": "Feature", "properties": { "name": "Udire/Kamrembo", "amenities": "markets_shopping", "prob_bin": 8.0 }, "geometry": { "type": "Point", "coordinates": [ 34.2438671, 0.2717733 ] } },
{ "type": "Feature", "properties": { "name": "Obwogere", "amenities": "markets_shopping", "prob_bin": 8.0 }, "geometry": { "type": "Point", "coordinates": [ 34.2138584, 0.277884 ] } },
{ "type": "Feature", "properties": { "name": "Sega Market", "amenities": "markets_shopping", "prob_bin": 8.0 }, "geometry": { "type": "Point", "coordinates": [ 34.2247853, 0.2613559 ] } },
{ "type": "Feature", "properties": { "name": "Nyalenda", "amenities": "markets_shopping", "prob_bin": 8.0 }, "geometry": { "type": "Point", "coordinates": [ 34.303972, 0.2881986 ] } },
{ "type": "Feature", "properties": { "name": "Kolali", "amenities": "markets_shopping", "prob_bin": 8.0 }, "geometry": { "type": "Point", "coordinates": [ 34.1304097, 0.2289537 ] } },
{ "type": "Feature", "properties": { "name": "Butula Abedo", "amenities": "markets_shopping", "prob_bin": 8.0 }, "geometry": { "type": "Point", "coordinates": [ 34.3378978, 0.3415672 ] } },
{ "type": "Feature", "properties": { "name": "Enakanywa", "amenities": "markets_shopping", "prob_bin": 8.0 }, "geometry": { "type": "Point", "coordinates": [ 34.3220735, 0.3401347 ] } },
{ "type": "Feature", "properties": { "name": "Kogoha Market", "amenities": "markets_shopping", "prob_bin": 8.0 }, "geometry": { "type": "Point", "coordinates": [ 34.3334591, 0.3014228 ] } },
{ "type": "Feature", "properties": { "name": "Brain Trust College", "amenities": "education", "prob_bin": null }, "geometry": { "type": "Point", "coordinates": [ 34.1266296, 0.5386774 ] } },
{ "type": "Feature", "properties": { "name": "Ma'alin Isaaq Abdi Madrassa", "amenities": "education", "prob_bin": null }, "geometry": { "type": "Point", "coordinates": [ 41.0032792, 0.4129359 ] } },
{ "type": "Feature", "properties": { "name": "Gotkokwiri Market", "amenities": "markets_shopping", "prob_bin": 8.0 }, "geometry": { "type": "Point", "coordinates": [ 34.4582796, 0.1416471 ] } },
{ "type": "Feature", "properties": { "name": "Maliera Secondary School", "amenities": "education", "prob_bin": 8.0 }, "geometry": { "type": "Point", "coordinates": [ 34.4578406, 0.1075149 ] } },
{ "type": "Feature", "properties": { "name": "Doho Primary School", "amenities": "education", "prob_bin": 8.0 }, "geometry": { "type": "Point", "coordinates": [ 34.4901594, 0.1222103 ] } },
{ "type": "Feature", "properties": { "name": "Luanda Dudi Market", "amenities": "markets_shopping", "prob_bin": 8.0 }, "geometry": { "type": "Point", "coordinates": [ 34.4874478, 0.1088555 ] } },
{ "type": "Feature", "properties": { "name": "Viyalo", "amenities": "markets_shopping", "prob_bin": 8.0 }, "geometry": { "type": "Point", "coordinates": [ 34.6995911, 0.1117301 ] } },
{ "type": "Feature", "properties": { "name": "Emusutswi tea buying centre", "amenities": "markets_shopping", "prob_bin": 8.0 }, "geometry": { "type": "Point", "coordinates": [ 34.6581166, 0.1136718 ] } },
{ "type": "Feature", "properties": { "name": "Emurembe Primary School", "amenities": "education", "prob_bin": 8.0 }, "geometry": { "type": "Point", "coordinates": [ 34.6742507, 0.1105871 ] } },
{ "type": "Feature", "properties": { "name": "Emuhondo", "amenities": "markets_shopping", "prob_bin": 8.0 }, "geometry": { "type": "Point", "coordinates": [ 34.6447243, 0.094724 ] } },
{ "type": "Feature", "properties": { "name": "Emuhondo Primary School", "amenities": "education", "prob_bin": 8.0 }, "geometry": { "type": "Point", "coordinates": [ 34.6445549, 0.0955317 ] } },
{ "type": "Feature", "properties": { "name": "Eshibinga Market", "amenities": "markets_shopping", "prob_bin": 8.0 }, "geometry": { "type": "Point", "coordinates": [ 34.5994885, 0.1176424 ] } },
{ "type": "Feature", "properties": { "name": "Eshibinga Primary School", "amenities": "education", "prob_bin": 8.0 }, "geometry": { "type": "Point", "coordinates": [ 34.5976775, 0.1247563 ] } },
{ "type": "Feature", "properties": { "name": "Emanyinya Primary School", "amenities": "education", "prob_bin": 8.0 }, "geometry": { "type": "Point", "coordinates": [ 34.6173867, 0.0967223 ] } },
{ "type": "Feature", "properties": { "name": "Ebuyangu", "amenities": "markets_shopping", "prob_bin": 8.0 }, "geometry": { "type": "Point", "coordinates": [ 34.5682986, 0.0847741 ] } },
{ "type": "Feature", "properties": { "name": "Yala market", "amenities": "markets_shopping", "prob_bin": 8.0 }, "geometry": { "type": "Point", "coordinates": [ 34.5394558, 0.0885205 ] } },
{ "type": "Feature", "properties": { "name": "Rarieda A", "amenities": "markets_shopping", "prob_bin": 8.0 }, "geometry": { "type": "Point", "coordinates": [ 34.5068608, 0.0971796 ] } },
{ "type": "Feature", "properties": { "name": "Lana market", "amenities": "markets_shopping", "prob_bin": 8.0 }, "geometry": { "type": "Point", "coordinates": [ 34.4178711, 0.1320836 ] } },
{ "type": "Feature", "properties": { "name": "Rang'ala Boys High School", "amenities": "education", "prob_bin": 8.0 }, "geometry": { "type": "Point", "coordinates": [ 34.3291771, 0.1513609 ] } },
{ "type": "Feature", "properties": { "name": "Bulemia Market", "amenities": "markets_shopping", "prob_bin": 8.0 }, "geometry": { "type": "Point", "coordinates": [ 34.0008606, 0.1149458 ] } },
{ "type": "Feature", "properties": { "name": "Osia Market", "amenities": "markets_shopping", "prob_bin": null }, "geometry": { "type": "Point", "coordinates": [ 34.3418462, 0.7177604 ] } },
{ "type": "Feature", "properties": { "name": "Changara Market Transformer", "amenities": "markets_shopping", "prob_bin": null }, "geometry": { "type": "Point", "coordinates": [ 34.4185583, 0.7402832 ] } },
{ "type": "Feature", "properties": { "name": "Bugi", "amenities": "markets_shopping", "prob_bin": 8.0 }, "geometry": { "type": "Point", "coordinates": [ 34.3803347, 0.3008892 ] } },
{ "type": "Feature", "properties": { "name": "Junction Kamolo Market", "amenities": "markets_shopping", "prob_bin": null }, "geometry": { "type": "Point", "coordinates": [ 34.2946977, 0.5880247 ] } },
{ "type": "Feature", "properties": { "name": "Kajei", "amenities": "markets_shopping", "prob_bin": null }, "geometry": { "type": "Point", "coordinates": [ 34.2849642, 0.6232373 ] } },
{ "type": "Feature", "properties": { "name": "Ayatia Primary School", "amenities": "education", "prob_bin": 5.0 }, "geometry": { "type": "Point", "coordinates": [ 35.6576071, 0.8900302 ] } },
{ "type": "Feature", "properties": { "name": "Kocholya", "amenities": "markets_shopping", "prob_bin": null }, "geometry": { "type": "Point", "coordinates": [ 34.3418661, 0.6182663 ] } },
{ "type": "Feature", "properties": { "name": "Chesangich Primary", "amenities": "education", "prob_bin": 5.0 }, "geometry": { "type": "Point", "coordinates": [ 35.6597195, 0.8108111 ] } },
{ "type": "Feature", "properties": { "name": "Kaptoropo ecd", "amenities": "education", "prob_bin": 5.0 }, "geometry": { "type": "Point", "coordinates": [ 35.7027312, 0.7968302 ] } },
{ "type": "Feature", "properties": { "name": "Kuikui Boarding and Day School", "amenities": "education", "prob_bin": 5.0 }, "geometry": { "type": "Point", "coordinates": [ 35.6957569, 0.8055031 ] } },
{ "type": "Feature", "properties": { "name": "Kaptorot Primary School", "amenities": "education", "prob_bin": 5.0 }, "geometry": { "type": "Point", "coordinates": [ 35.766922, 0.7399796 ] } },
{ "type": "Feature", "properties": { "name": "ecd", "amenities": "education", "prob_bin": 5.0 }, "geometry": { "type": "Point", "coordinates": [ 35.7187871, 0.7120767 ] } },
{ "type": "Feature", "properties": { "name": "Barwessa Trading Center", "amenities": "markets_shopping", "prob_bin": 5.0 }, "geometry": { "type": "Point", "coordinates": [ 35.7004998, 0.7033496 ] } },
{ "type": "Feature", "properties": { "name": "Kaptilomwo Primary School", "amenities": "education", "prob_bin": 5.0 }, "geometry": { "type": "Point", "coordinates": [ 35.7314301, 0.7490592 ] } },
{ "type": "Feature", "properties": { "name": "Katira", "amenities": "markets_shopping", "prob_bin": null }, "geometry": { "type": "Point", "coordinates": [ 34.3391022, 0.5869978 ] } },
{ "type": "Feature", "properties": { "name": "Ojam", "amenities": "markets_shopping", "prob_bin": null }, "geometry": { "type": "Point", "coordinates": [ 34.3271266, 0.5933612 ] } },
{ "type": "Feature", "properties": { "name": "Kona", "amenities": "markets_shopping", "prob_bin": null }, "geometry": { "type": "Point", "coordinates": [ 34.3582677, 0.5846405 ] } },
{ "type": "Feature", "properties": { "name": "Soweto Academy", "amenities": "education", "prob_bin": 8.0 }, "geometry": { "type": "Point", "coordinates": [ 36.7757272, -1.3161366 ] } },
{ "type": "Feature", "properties": { "name": "St Vincent De Paul Nursery School", "amenities": "education", "prob_bin": 8.0 }, "geometry": { "type": "Point", "coordinates": [ 36.7773927, -1.3141151 ] } },
{ "type": "Feature", "properties": { "name": "St Stephen Education Center", "amenities": "education", "prob_bin": 8.0 }, "geometry": { "type": "Point", "coordinates": [ 36.7832372, -1.3150695 ] } },
{ "type": "Feature", "properties": { "name": "Ngei PAG Education Center", "amenities": "education", "prob_bin": 8.0 }, "geometry": { "type": "Point", "coordinates": [ 36.866742, -1.2610385 ] } },
{ "type": "Feature", "properties": { "name": "Ngei PAG Education Center", "amenities": "education", "prob_bin": 8.0 }, "geometry": { "type": "Point", "coordinates": [ 36.8666936, -1.2611456 ] } },
{ "type": "Feature", "properties": { "name": "Well watered garden demonstration site", "amenities": "education", "prob_bin": 8.0 }, "geometry": { "type": "Point", "coordinates": [ 36.5943113, -0.9457122 ] } },
{ "type": "Feature", "properties": { "name": "St. Paul's University", "amenities": "education", "prob_bin": 8.0 }, "geometry": { "type": "Point", "coordinates": [ 36.6668613, -1.148409 ] } },
{ "type": "Feature", "properties": { "name": null, "amenities": "education", "prob_bin": 8.0 }, "geometry": { "type": "Point", "coordinates": [ 34.9679124, -0.1678815 ] } },
{ "type": "Feature", "properties": { "name": "Aga Khan Ridgeways Medical Centre", "amenities": "healthcare", "prob_bin": 8.0 }, "geometry": { "type": "Point", "coordinates": [ 36.8415548, -1.2300084 ] } },
{ "type": "Feature", "properties": { "name": "Eljoy Education Centre", "amenities": "education", "prob_bin": 8.0 }, "geometry": { "type": "Point", "coordinates": [ 36.8661758, -1.258525 ] } },
{ "type": "Feature", "properties": { "name": "Eljoy Education Centre", "amenities": "education", "prob_bin": 8.0 }, "geometry": { "type": "Point", "coordinates": [ 36.86618, -1.2584736 ] } },
{ "type": "Feature", "properties": { "name": "Pilot Educational Daycare Centre", "amenities": "education", "prob_bin": 8.0 }, "geometry": { "type": "Point", "coordinates": [ 36.8646362, -1.259164 ] } },
{ "type": "Feature", "properties": { "name": "Olkejuado High School", "amenities": "education", "prob_bin": 5.0 }, "geometry": { "type": "Point", "coordinates": [ 36.8104579, -1.8317538 ] } },
{ "type": "Feature", "properties": { "name": "Kanyumba", "amenities": "markets_shopping", "prob_bin": 8.0 }, "geometry": { "type": "Point", "coordinates": [ 34.3488017, 0.3012061 ] } },
{ "type": "Feature", "properties": { "name": "Siaya Modern Market", "amenities": "markets_shopping", "prob_bin": 8.0 }, "geometry": { "type": "Point", "coordinates": [ 34.2834544, 0.0593618 ] } },
{ "type": "Feature", "properties": { "name": "Destiny Kids Rescue Centre", "amenities": "education", "prob_bin": 8.0 }, "geometry": { "type": "Point", "coordinates": [ 36.8659061, -1.2595806 ] } },
{ "type": "Feature", "properties": { "name": "Kobare market", "amenities": "markets_shopping", "prob_bin": 8.0 }, "geometry": { "type": "Point", "coordinates": [ 34.3097937, 0.1250379 ] } },
{ "type": "Feature", "properties": { "name": "Ananda Marga School", "amenities": "education", "prob_bin": 8.0 }, "geometry": { "type": "Point", "coordinates": [ 36.8684065, -1.2591721 ] } },
{ "type": "Feature", "properties": { "name": "Joy Community Education Centre", "amenities": "education", "prob_bin": 8.0 }, "geometry": { "type": "Point", "coordinates": [ 36.8453607, -1.2657696 ] } },
{ "type": "Feature", "properties": { "name": "Joyrina Junior Academy", "amenities": "education", "prob_bin": 8.0 }, "geometry": { "type": "Point", "coordinates": [ 36.8680034, -1.2586466 ] } },
{ "type": "Feature", "properties": { "name": "Millennium Academy", "amenities": "education", "prob_bin": 8.0 }, "geometry": { "type": "Point", "coordinates": [ 36.8648644, -1.2583484 ] } },
{ "type": "Feature", "properties": { "name": "Golden Bells Education Centre", "amenities": "education", "prob_bin": 8.0 }, "geometry": { "type": "Point", "coordinates": [ 36.8570264, -1.2645934 ] } },
{ "type": "Feature", "properties": { "name": "Kingdom Living Now School", "amenities": "education", "prob_bin": 8.0 }, "geometry": { "type": "Point", "coordinates": [ 36.862886, -1.260479 ] } },
{ "type": "Feature", "properties": { "name": "Precious Child Juniour School", "amenities": "education", "prob_bin": 8.0 }, "geometry": { "type": "Point", "coordinates": [ 36.8675017, -1.2604034 ] } },
{ "type": "Feature", "properties": { "name": "Magnificat Feeding Programme", "amenities": "education", "prob_bin": 8.0 }, "geometry": { "type": "Point", "coordinates": [ 36.865007, -1.2585158 ] } },
{ "type": "Feature", "properties": { "name": "St James Feeding Programme and Learning Project", "amenities": "education", "prob_bin": 8.0 }, "geometry": { "type": "Point", "coordinates": [ 36.8562896, -1.2645314 ] } },
{ "type": "Feature", "properties": { "name": "St Martins De Porres primary school", "amenities": "education", "prob_bin": 8.0 }, "geometry": { "type": "Point", "coordinates": [ 36.87274, -1.2548093 ] } },
{ "type": "Feature", "properties": { "name": "Bridge International Academy", "amenities": "education", "prob_bin": 8.0 }, "geometry": { "type": "Point", "coordinates": [ 36.860209, -1.2624123 ] } },
{ "type": "Feature", "properties": { "name": "Mathare Community Outreach School", "amenities": "education", "prob_bin": 8.0 }, "geometry": { "type": "Point", "coordinates": [ 36.8560102, -1.263632 ] } },
{ "type": "Feature", "properties": { "name": "Mathare Community Outreach School", "amenities": "education", "prob_bin": 8.0 }, "geometry": { "type": "Point", "coordinates": [ 36.8559538, -1.2635738 ] } },
{ "type": "Feature", "properties": { "name": null, "amenities": "education", "prob_bin": 8.0 }, "geometry": { "type": "Point", "coordinates": [ 34.0882046, 0.4612485 ] } },
{ "type": "Feature", "properties": { "name": "Mumo Education Centre", "amenities": "education", "prob_bin": 8.0 }, "geometry": { "type": "Point", "coordinates": [ 36.8619074, -1.2616048 ] } },
{ "type": "Feature", "properties": { "name": "Sancare Preparatory School", "amenities": "education", "prob_bin": 8.0 }, "geometry": { "type": "Point", "coordinates": [ 36.8657188, -1.2596304 ] } },
{ "type": "Feature", "properties": { "name": "Ngota's Upendo Nursery School and Youth Center", "amenities": "education", "prob_bin": 8.0 }, "geometry": { "type": "Point", "coordinates": [ 36.863691, -1.259784 ] } },
{ "type": "Feature", "properties": { "name": "Mama Africa Academy", "amenities": "education", "prob_bin": 8.0 }, "geometry": { "type": "Point", "coordinates": [ 36.8632975, -1.2615771 ] } },
{ "type": "Feature", "properties": { "name": "Mathare Vocational Training Center", "amenities": "education", "prob_bin": 8.0 }, "geometry": { "type": "Point", "coordinates": [ 36.8638023, -1.2615767 ] } },
{ "type": "Feature", "properties": { "name": "Balozi school", "amenities": "education", "prob_bin": 8.0 }, "geometry": { "type": "Point", "coordinates": [ 36.864315, -1.2628247 ] } },
{ "type": "Feature", "properties": { "name": "Kingdom Living Now School", "amenities": "education", "prob_bin": 8.0 }, "geometry": { "type": "Point", "coordinates": [ 36.8785766, -1.260379 ] } },
{ "type": "Feature", "properties": { "name": "Valley Gates Education Center", "amenities": "education", "prob_bin": 8.0 }, "geometry": { "type": "Point", "coordinates": [ 36.8755221, -1.2602973 ] } },
{ "type": "Feature", "properties": { "name": "Goodstart Junior School", "amenities": "education", "prob_bin": 8.0 }, "geometry": { "type": "Point", "coordinates": [ 36.8754178, -1.2614085 ] } },
{ "type": "Feature", "properties": { "name": "Mumo Education Center", "amenities": "education", "prob_bin": 8.0 }, "geometry": { "type": "Point", "coordinates": [ 36.86281, -1.262259 ] } },
{ "type": "Feature", "properties": { "name": "Neci Education Centre", "amenities": "education", "prob_bin": 8.0 }, "geometry": { "type": "Point", "coordinates": [ 36.8503226, -1.2651838 ] } },
{ "type": "Feature", "properties": { "name": "Genesis Kindergarten Annex Primary Schools", "amenities": "education", "prob_bin": 8.0 }, "geometry": { "type": "Point", "coordinates": [ 36.8766784, -1.2581824 ] } },
{ "type": "Feature", "properties": { "name": "Mother's Joy Academy", "amenities": "education", "prob_bin": 8.0 }, "geometry": { "type": "Point", "coordinates": [ 36.8753462, -1.2590389 ] } },
{ "type": "Feature", "properties": { "name": "MothersJoy Academy", "amenities": "education", "prob_bin": 8.0 }, "geometry": { "type": "Point", "coordinates": [ 36.8752273, -1.2591239 ] } },
{ "type": "Feature", "properties": { "name": "Carol Angel Education Centre", "amenities": "education", "prob_bin": 8.0 }, "geometry": { "type": "Point", "coordinates": [ 36.8719816, -1.25515 ] } },
{ "type": "Feature", "properties": { "name": "Bridge Star Academy", "amenities": "education", "prob_bin": 8.0 }, "geometry": { "type": "Point", "coordinates": [ 36.8748719, -1.2585807 ] } },
{ "type": "Feature", "properties": { "name": "Angels of Mercy Secondary school", "amenities": "education", "prob_bin": 8.0 }, "geometry": { "type": "Point", "coordinates": [ 36.8753928, -1.2583234 ] } },
{ "type": "Feature", "properties": { "name": "Glorious Blue Stars", "amenities": "education", "prob_bin": 8.0 }, "geometry": { "type": "Point", "coordinates": [ 36.8724016, -1.2548881 ] } },
{ "type": "Feature", "properties": { "name": "Glorious Blue Stars", "amenities": "education", "prob_bin": 8.0 }, "geometry": { "type": "Point", "coordinates": [ 36.8726332, -1.2546723 ] } },
{ "type": "Feature", "properties": { "name": "Kenya Muslim Academy", "amenities": "education", "prob_bin": 8.0 }, "geometry": { "type": "Point", "coordinates": [ 36.878069, -1.2562514 ] } },
{ "type": "Feature", "properties": { "name": "New Hope Education Centre", "amenities": "education", "prob_bin": 8.0 }, "geometry": { "type": "Point", "coordinates": [ 36.8736433, -1.258475 ] } },
{ "type": "Feature", "properties": { "name": "Marakim Preparatory Cottage", "amenities": "education", "prob_bin": 8.0 }, "geometry": { "type": "Point", "coordinates": [ 36.8783474, -1.2586393 ] } },
{ "type": "Feature", "properties": { "name": "Missions of Hope Madoya Centre", "amenities": "education", "prob_bin": 8.0 }, "geometry": { "type": "Point", "coordinates": [ 36.8722649, -1.2565139 ] } },
{ "type": "Feature", "properties": { "name": "KAG Mathare Child Development Center", "amenities": "education", "prob_bin": 8.0 }, "geometry": { "type": "Point", "coordinates": [ 36.8782791, -1.2592576 ] } },
{ "type": "Feature", "properties": { "name": "Christopher Kiamba Memorial School", "amenities": "education", "prob_bin": 8.0 }, "geometry": { "type": "Point", "coordinates": [ 37.3583257, -1.9953084 ] } },
{ "type": "Feature", "properties": { "name": "Kalaani Primary School", "amenities": "education", "prob_bin": 6.0 }, "geometry": { "type": "Point", "coordinates": [ 37.5240361, -1.9106847 ] } },
{ "type": "Feature", "properties": { "name": "Makutano market", "amenities": "markets_shopping", "prob_bin": 8.0 }, "geometry": { "type": "Point", "coordinates": [ 37.4973261, -1.8752436 ] } },
{ "type": "Feature", "properties": { "name": "Kishamba Primary School", "amenities": "education", "prob_bin": 3.0 }, "geometry": { "type": "Point", "coordinates": [ 38.3759284, -3.4294014 ] } },
{ "type": "Feature", "properties": { "name": "Dembwa Primary School", "amenities": "education", "prob_bin": 3.0 }, "geometry": { "type": "Point", "coordinates": [ 38.3621393, -3.4500893 ] } },
{ "type": "Feature", "properties": { "name": "Voi Market Hall", "amenities": "markets_shopping", "prob_bin": 4.0 }, "geometry": { "type": "Point", "coordinates": [ 38.5638978, -3.3928603 ] } },
{ "type": "Feature", "properties": { "name": "Voi Medical Centre", "amenities": "healthcare", "prob_bin": 4.0 }, "geometry": { "type": "Point", "coordinates": [ 38.560033, -3.3939449 ] } },
{ "type": "Feature", "properties": { "name": "Tsavo Academy Primary School", "amenities": "education", "prob_bin": 4.0 }, "geometry": { "type": "Point", "coordinates": [ 38.5754761, -3.3822545 ] } },
{ "type": "Feature", "properties": { "name": "Bahakwenu Primary School", "amenities": "education", "prob_bin": 4.0 }, "geometry": { "type": "Point", "coordinates": [ 39.0942927, -3.7878087 ] } },
{ "type": "Feature", "properties": { "name": "Magale Primary School", "amenities": "education", "prob_bin": 4.0 }, "geometry": { "type": "Point", "coordinates": [ 39.1053143, -3.812941 ] } },
{ "type": "Feature", "properties": { "name": "Makamini Secondary School", "amenities": "education", "prob_bin": 4.0 }, "geometry": { "type": "Point", "coordinates": [ 39.1056753, -3.8123316 ] } },
{ "type": "Feature", "properties": { "name": "Bidinimole Primary School", "amenities": "education", "prob_bin": 5.0 }, "geometry": { "type": "Point", "coordinates": [ 39.0283896, -4.230162 ] } },
{ "type": "Feature", "properties": { "name": "St.Joseph Primary", "amenities": "education", "prob_bin": 5.0 }, "geometry": { "type": "Point", "coordinates": [ 39.31788, -4.1426919 ] } },
{ "type": "Feature", "properties": { "name": "Kinango Secondary", "amenities": "education", "prob_bin": 5.0 }, "geometry": { "type": "Point", "coordinates": [ 39.3193308, -4.1412656 ] } },
{ "type": "Feature", "properties": { "name": "Kinango Animal market", "amenities": "markets_shopping", "prob_bin": 5.0 }, "geometry": { "type": "Point", "coordinates": [ 39.3181427, -4.1371205 ] } },
{ "type": "Feature", "properties": { "name": "Bahakanda Primary School", "amenities": "education", "prob_bin": 5.0 }, "geometry": { "type": "Point", "coordinates": [ 39.3311815, -4.2671877 ] } },
{ "type": "Feature", "properties": { "name": "Mkundi Primary School", "amenities": "education", "prob_bin": 5.0 }, "geometry": { "type": "Point", "coordinates": [ 39.2477488, -4.3659584 ] } },
{ "type": "Feature", "properties": { "name": "Dzzombo Primary", "amenities": "education", "prob_bin": 5.0 }, "geometry": { "type": "Point", "coordinates": [ 39.214177, -4.4504825 ] } },
{ "type": "Feature", "properties": { "name": "Oasis Academy", "amenities": "education", "prob_bin": 5.0 }, "geometry": { "type": "Point", "coordinates": [ 39.2441164, -4.4616571 ] } },
{ "type": "Feature", "properties": { "name": "Muambani Pre-School", "amenities": "education", "prob_bin": 5.0 }, "geometry": { "type": "Point", "coordinates": [ 39.2560335, -4.4661966 ] } },
{ "type": "Feature", "properties": { "name": "Mwaluvanga Primary School", "amenities": "education", "prob_bin": 5.0 }, "geometry": { "type": "Point", "coordinates": [ 39.3630162, -4.3805226 ] } },
{ "type": "Feature", "properties": { "name": "Mtsagatamu Primary School", "amenities": "education", "prob_bin": 5.0 }, "geometry": { "type": "Point", "coordinates": [ 39.3960474, -4.2022648 ] } },
{ "type": "Feature", "properties": { "name": "Mrabani Primary", "amenities": "education", "prob_bin": 6.0 }, "geometry": { "type": "Point", "coordinates": [ 37.6405943, -3.4706557 ] } },
{ "type": "Feature", "properties": { "name": "Ebirika primary school", "amenities": "education", "prob_bin": null }, "geometry": { "type": "Point", "coordinates": [ 36.8284287, -2.5267091 ] } },
{ "type": "Feature", "properties": { "name": "Mariwenyi Primary School", "amenities": "education", "prob_bin": 4.0 }, "geometry": { "type": "Point", "coordinates": [ 38.507524, -3.4419021 ] } },
{ "type": "Feature", "properties": { "name": "Nolasiti Dispensary", "amenities": "healthcare", "prob_bin": 6.0 }, "geometry": { "type": "Point", "coordinates": [ 37.8525241, -3.0114094 ] } },
{ "type": "Feature", "properties": { "name": "Rekeke Health Center", "amenities": "healthcare", "prob_bin": 6.0 }, "geometry": { "type": "Point", "coordinates": [ 37.7330917, -3.4283124 ] } },
{ "type": "Feature", "properties": { "name": "Olmesutie Primary School", "amenities": "education", "prob_bin": 2.0 }, "geometry": { "type": "Point", "coordinates": [ 35.7378499, -1.9054777 ] } },
{ "type": "Feature", "properties": { "name": "Centre of Hope and Transformation", "amenities": "education", "prob_bin": 8.0 }, "geometry": { "type": "Point", "coordinates": [ 36.8580624, -1.2629362 ] } },
{ "type": "Feature", "properties": { "name": "Samergo Glorious Educational Centre", "amenities": "education", "prob_bin": 8.0 }, "geometry": { "type": "Point", "coordinates": [ 36.866904, -1.2577676 ] } },
{ "type": "Feature", "properties": { "name": "Kanyaa Educational Centre", "amenities": "education", "prob_bin": 8.0 }, "geometry": { "type": "Point", "coordinates": [ 36.8573067, -1.2654199 ] } },
{ "type": "Feature", "properties": { "name": "Golden Bells Educational centre", "amenities": "education", "prob_bin": 8.0 }, "geometry": { "type": "Point", "coordinates": [ 36.8573468, -1.2654681 ] } },
{ "type": "Feature", "properties": { "name": "Al Amannah", "amenities": "healthcare", "prob_bin": 5.0 }, "geometry": { "type": "Point", "coordinates": [ 40.0553779, 1.7413572 ] } },
{ "type": "Feature", "properties": { "name": "Sweet Berries Educational Centre", "amenities": "education", "prob_bin": 8.0 }, "geometry": { "type": "Point", "coordinates": [ 36.8681472, -1.2605098 ] } },
{ "type": "Feature", "properties": { "name": "Roses Daycare and Academy", "amenities": "education", "prob_bin": 8.0 }, "geometry": { "type": "Point", "coordinates": [ 36.8680851, -1.2597876 ] } },
{ "type": "Feature", "properties": { "name": "MaxDais Faith School", "amenities": "education", "prob_bin": 8.0 }, "geometry": { "type": "Point", "coordinates": [ 36.8659459, -1.2593155 ] } },
{ "type": "Feature", "properties": { "name": "Focused Education Centre", "amenities": "education", "prob_bin": 8.0 }, "geometry": { "type": "Point", "coordinates": [ 36.8663208, -1.2594331 ] } },
{ "type": "Feature", "properties": { "name": "St. Ruth Academy", "amenities": "education", "prob_bin": 8.0 }, "geometry": { "type": "Point", "coordinates": [ 36.8663542, -1.2603653 ] } },
{ "type": "Feature", "properties": { "name": "St Philips School Mathare", "amenities": "education", "prob_bin": 8.0 }, "geometry": { "type": "Point", "coordinates": [ 36.8450879, -1.2644644 ] } },
{ "type": "Feature", "properties": { "name": "Destiny Community School", "amenities": "education", "prob_bin": 8.0 }, "geometry": { "type": "Point", "coordinates": [ 36.8460547, -1.2653755 ] } },
{ "type": "Feature", "properties": { "name": "Lea learning Center", "amenities": "education", "prob_bin": 8.0 }, "geometry": { "type": "Point", "coordinates": [ 36.8575611, -1.26302 ] } },
{ "type": "Feature", "properties": { "name": "MCEDO Secondary School", "amenities": "education", "prob_bin": 8.0 }, "geometry": { "type": "Point", "coordinates": [ 36.8556356, -1.2630544 ] } },
{ "type": "Feature", "properties": { "name": "U-Block", "amenities": "education", "prob_bin": 8.0 }, "geometry": { "type": "Point", "coordinates": [ 36.8256164, -1.2916903 ] } },
{ "type": "Feature", "properties": { "name": "Recada School", "amenities": "education", "prob_bin": 8.0 }, "geometry": { "type": "Point", "coordinates": [ 36.8553081, -1.2637954 ] } },
{ "type": "Feature", "properties": { "name": "Missions of Hope BH", "amenities": "education", "prob_bin": 8.0 }, "geometry": { "type": "Point", "coordinates": [ 36.8535995, -1.2646641 ] } },
{ "type": "Feature", "properties": { "name": "Kieni Kia Ndege Primary School", "amenities": "education", "prob_bin": 8.0 }, "geometry": { "type": "Point", "coordinates": [ 37.5724386, 0.1373219 ] } },
{ "type": "Feature", "properties": { "name": "Wema Learning Centre", "amenities": "education", "prob_bin": 8.0 }, "geometry": { "type": "Point", "coordinates": [ 36.8648306, -1.2581004 ] } },
{ "type": "Feature", "properties": { "name": "Star Education Centre", "amenities": "education", "prob_bin": 8.0 }, "geometry": { "type": "Point", "coordinates": [ 36.8521785, -1.2653475 ] } },
{ "type": "Feature", "properties": { "name": "Edom Springs Community School", "amenities": "education", "prob_bin": 8.0 }, "geometry": { "type": "Point", "coordinates": [ 36.8444895, -1.2662769 ] } },
{ "type": "Feature", "properties": { "name": "Roots Institute Centre", "amenities": "education", "prob_bin": 8.0 }, "geometry": { "type": "Point", "coordinates": [ 36.8524983, -1.2632748 ] } },
{ "type": "Feature", "properties": { "name": "Ebenezer Academy", "amenities": "education", "prob_bin": 8.0 }, "geometry": { "type": "Point", "coordinates": [ 36.7784353, -1.3183121 ] } },
{ "type": "Feature", "properties": { "name": "Church On The Rock Academy", "amenities": "education", "prob_bin": 8.0 }, "geometry": { "type": "Point", "coordinates": [ 36.7773643, -1.317492 ] } },
{ "type": "Feature", "properties": { "name": "St Stephen Educational Centre", "amenities": "education", "prob_bin": 8.0 }, "geometry": { "type": "Point", "coordinates": [ 36.7774269, -1.3173959 ] } },
{ "type": "Feature", "properties": { "name": "Sunflower Early Education Development", "amenities": "education", "prob_bin": 8.0 }, "geometry": { "type": "Point", "coordinates": [ 36.7787335, -1.3145344 ] } },
{ "type": "Feature", "properties": { "name": "Destiny Community School", "amenities": "education", "prob_bin": 8.0 }, "geometry": { "type": "Point", "coordinates": [ 36.8459172, -1.2665386 ] } },
{ "type": "Feature", "properties": { "name": "St Teresa's Pre Primary School", "amenities": "education", "prob_bin": 8.0 }, "geometry": { "type": "Point", "coordinates": [ 36.8468203, -1.2647137 ] } },
{ "type": "Feature", "properties": { "name": "Shammah Children Centre", "amenities": "education", "prob_bin": 8.0 }, "geometry": { "type": "Point", "coordinates": [ 36.776317, -1.3120514 ] } },
{ "type": "Feature", "properties": { "name": "Emining Boys High School", "amenities": "education", "prob_bin": 8.0 }, "geometry": { "type": "Point", "coordinates": [ 35.8869734, 0.1364291 ] } },
{ "type": "Feature", "properties": { "name": "Emining Technical Training Institute ETTI", "amenities": "education", "prob_bin": 8.0 }, "geometry": { "type": "Point", "coordinates": [ 35.8895912, 0.1366651 ] } },
{ "type": "Feature", "properties": { "name": "Fair View Children Centre", "amenities": "education", "prob_bin": 8.0 }, "geometry": { "type": "Point", "coordinates": [ 36.7754051, -1.31484 ] } },
{ "type": "Feature", "properties": { "name": "KAG Olympic Education Centre", "amenities": "education", "prob_bin": 8.0 }, "geometry": { "type": "Point", "coordinates": [ 36.7778488, -1.3147084 ] } },
{ "type": "Feature", "properties": { "name": "Grace Land Academy", "amenities": "education", "prob_bin": 8.0 }, "geometry": { "type": "Point", "coordinates": [ 36.7788031, -1.3141406 ] } },
{ "type": "Feature", "properties": { "name": "Bondeni Maternity- Level 4 Hospital", "amenities": "healthcare", "prob_bin": 8.0 }, "geometry": { "type": "Point", "coordinates": [ 36.0794877, -0.2957331 ] } },
{ "type": "Feature", "properties": { "name": "Bondeni Nursery School", "amenities": "education", "prob_bin": 8.0 }, "geometry": { "type": "Point", "coordinates": [ 36.0791577, -0.2948786 ] } },
{ "type": "Feature", "properties": { "name": "Mathare Early Childhood Development Centre", "amenities": "education", "prob_bin": 8.0 }, "geometry": { "type": "Point", "coordinates": [ 36.845051, -1.2638293 ] } },
{ "type": "Feature", "properties": { "name": "Joy Community education center", "amenities": "education", "prob_bin": 8.0 }, "geometry": { "type": "Point", "coordinates": [ 36.8466745, -1.2677687 ] } },
{ "type": "Feature", "properties": { "name": "Gate View Education Centre", "amenities": "education", "prob_bin": 8.0 }, "geometry": { "type": "Point", "coordinates": [ 36.8446999, -1.2641304 ] } },
{ "type": "Feature", "properties": { "name": "St Christine Secondary School", "amenities": "education", "prob_bin": 8.0 }, "geometry": { "type": "Point", "coordinates": [ 36.7770555, -1.3172096 ] } },
{ "type": "Feature", "properties": { "name": "Anajali Primary School", "amenities": "education", "prob_bin": 8.0 }, "geometry": { "type": "Point", "coordinates": [ 36.7792246, -1.3186906 ] } },
{ "type": "Feature", "properties": { "name": "Johana Justin Jinnich(Shofco Mathre)", "amenities": "healthcare", "prob_bin": 8.0 }, "geometry": { "type": "Point", "coordinates": [ 36.8578927, -1.2633569 ] } },
{ "type": "Feature", "properties": { "name": "Nzambia Shopping Centre", "amenities": "markets_shopping", "prob_bin": 6.0 }, "geometry": { "type": "Point", "coordinates": [ 37.8925193, -1.8137201 ] } },
{ "type": "Feature", "properties": { "name": "cs Isaiah Douglas medical center", "amenities": "healthcare", "prob_bin": 8.0 }, "geometry": { "type": "Point", "coordinates": [ 36.7103633, -1.2543932 ] } },
{ "type": "Feature", "properties": { "name": "Maranatha Laini Saba Academy", "amenities": "education", "prob_bin": 8.0 }, "geometry": { "type": "Point", "coordinates": [ 36.793513, -1.3129495 ] } },
{ "type": "Feature", "properties": { "name": "Kumahumata market", "amenities": "markets_shopping", "prob_bin": 3.0 }, "geometry": { "type": "Point", "coordinates": [ 40.0812915, 0.3130095 ] } },
{ "type": "Feature", "properties": { "name": "Bulla iftin market", "amenities": "markets_shopping", "prob_bin": 5.0 }, "geometry": { "type": "Point", "coordinates": [ 39.6510124, -0.483002 ] } },
{ "type": "Feature", "properties": { "name": "Suraz", "amenities": "markets_shopping", "prob_bin": 3.0 }, "geometry": { "type": "Point", "coordinates": [ 40.0171342, 0.3445029 ] } },
{ "type": "Feature", "properties": { "name": "Usadik house", "amenities": "markets_shopping", "prob_bin": 5.0 }, "geometry": { "type": "Point", "coordinates": [ 39.65083, -0.4837576 ] } },
{ "type": "Feature", "properties": { "name": "Iftin stage market", "amenities": "markets_shopping", "prob_bin": 5.0 }, "geometry": { "type": "Point", "coordinates": [ 39.6514082, -0.4837761 ] } },
{ "type": "Feature", "properties": { "name": "Iskanza market center", "amenities": "markets_shopping", "prob_bin": 2.0 }, "geometry": { "type": "Point", "coordinates": [ 39.299628, 0.909497 ] } },
{ "type": "Feature", "properties": { "name": "bula punda market", "amenities": "markets_shopping", "prob_bin": 5.0 }, "geometry": { "type": "Point", "coordinates": [ 39.6378667, -0.4459462 ] } },
{ "type": "Feature", "properties": { "name": "Kumahumato dispensary", "amenities": "healthcare", "prob_bin": 3.0 }, "geometry": { "type": "Point", "coordinates": [ 40.0765949, 0.314186 ] } },
{ "type": "Feature", "properties": { "name": "Baitul tiba", "amenities": "healthcare", "prob_bin": 5.0 }, "geometry": { "type": "Point", "coordinates": [ 39.6523149, -0.4848352 ] } },
{ "type": "Feature", "properties": { "name": "Tawakal medical centre", "amenities": "healthcare", "prob_bin": 5.0 }, "geometry": { "type": "Point", "coordinates": [ 39.6508399, -0.4835452 ] } },
{ "type": "Feature", "properties": { "name": "High gate health centre", "amenities": "healthcare", "prob_bin": 5.0 }, "geometry": { "type": "Point", "coordinates": [ 39.637581, -0.4492675 ] } },
{ "type": "Feature", "properties": { "name": "Samara", "amenities": "healthcare", "prob_bin": 5.0 }, "geometry": { "type": "Point", "coordinates": [ 39.6508703, -0.4839379 ] } },
{ "type": "Feature", "properties": { "name": "Hoywik Learning Centre", "amenities": "education", "prob_bin": 8.0 }, "geometry": { "type": "Point", "coordinates": [ 36.7796742, -1.3190459 ] } },
{ "type": "Feature", "properties": { "name": "Anajali Nursery School", "amenities": "education", "prob_bin": 8.0 }, "geometry": { "type": "Point", "coordinates": [ 36.7791789, -1.3186822 ] } },
{ "type": "Feature", "properties": { "name": "Church On The Rock Academy", "amenities": "education", "prob_bin": 8.0 }, "geometry": { "type": "Point", "coordinates": [ 36.7773735, -1.3174872 ] } },
{ "type": "Feature", "properties": { "name": "St Stephen Educational Centre", "amenities": "education", "prob_bin": 8.0 }, "geometry": { "type": "Point", "coordinates": [ 36.777429, -1.317394 ] } },
{ "type": "Feature", "properties": { "name": "Tenderlings School", "amenities": "education", "prob_bin": 8.0 }, "geometry": { "type": "Point", "coordinates": [ 36.7762577, -1.3085809 ] } },
{ "type": "Feature", "properties": { "name": "Tumaini Juniour Academy", "amenities": "education", "prob_bin": 8.0 }, "geometry": { "type": "Point", "coordinates": [ 36.7847035, -1.3128282 ] } },
{ "type": "Feature", "properties": { "name": "God Awendo Primary School", "amenities": "education", "prob_bin": 8.0 }, "geometry": { "type": "Point", "coordinates": [ 34.2487365, -0.5014305 ] } },
{ "type": "Feature", "properties": { "name": "Koroge Primary School", "amenities": "education", "prob_bin": 8.0 }, "geometry": { "type": "Point", "coordinates": [ 34.2326635, -0.7928019 ] } },
{ "type": "Feature", "properties": { "name": "Mediheal Group of Hospitals - Parklands", "amenities": "healthcare", "prob_bin": 8.0 }, "geometry": { "type": "Point", "coordinates": [ 36.8225785, -1.2621628 ] } },
{ "type": "Feature", "properties": { "name": "Skanska", "amenities": "markets_shopping", "prob_bin": 2.0 }, "geometry": { "type": "Point", "coordinates": [ 39.2987741, 0.90849 ] } },
{ "type": "Feature", "properties": { "name": "Maqbul mini market", "amenities": "markets_shopping", "prob_bin": 5.0 }, "geometry": { "type": "Point", "coordinates": [ 39.655366, -0.4859747 ] } },
{ "type": "Feature", "properties": { "name": "Ali kune market", "amenities": "markets_shopping", "prob_bin": 3.0 }, "geometry": { "type": "Point", "coordinates": [ 40.0167896, 0.3442155 ] } },
{ "type": "Feature", "properties": { "name": "AL rahman shop", "amenities": "markets_shopping", "prob_bin": 3.0 }, "geometry": { "type": "Point", "coordinates": [ 40.0163427, 0.3441758 ] } },
{ "type": "Feature", "properties": { "name": "Skanska", "amenities": "healthcare", "prob_bin": 2.0 }, "geometry": { "type": "Point", "coordinates": [ 39.3008447, 0.9015508 ] } },
{ "type": "Feature", "properties": { "name": "Iftin sub county", "amenities": "healthcare", "prob_bin": 5.0 }, "geometry": { "type": "Point", "coordinates": [ 39.6566173, -0.4757799 ] } },
{ "type": "Feature", "properties": { "name": "Alikune", "amenities": "healthcare", "prob_bin": 3.0 }, "geometry": { "type": "Point", "coordinates": [ 40.0138916, 0.3436007 ] } },
{ "type": "Feature", "properties": { "name": "Al Baitul Tiiba Hospital", "amenities": "healthcare", "prob_bin": 5.0 }, "geometry": { "type": "Point", "coordinates": [ 39.6524109, -0.4847556 ] } },
{ "type": "Feature", "properties": { "name": "Skanska", "amenities": "healthcare", "prob_bin": 2.0 }, "geometry": { "type": "Point", "coordinates": [ 39.3010431, 0.9015438 ] } },
{ "type": "Feature", "properties": { "name": "St Christine Education Centre", "amenities": "education", "prob_bin": 8.0 }, "geometry": { "type": "Point", "coordinates": [ 36.7770397, -1.3172201 ] } },
{ "type": "Feature", "properties": { "name": "Calvary Educational Centre", "amenities": "education", "prob_bin": 8.0 }, "geometry": { "type": "Point", "coordinates": [ 36.7895003, -1.3084031 ] } },
{ "type": "Feature", "properties": { "name": null, "amenities": "education", "prob_bin": 5.0 }, "geometry": { "type": "Point", "coordinates": [ 34.8133336, 3.7627491 ] } },
{ "type": "Feature", "properties": { "name": "Three Bells Primary", "amenities": "education", "prob_bin": 8.0 }, "geometry": { "type": "Point", "coordinates": [ 36.7819621, -1.3110533 ] } },
{ "type": "Feature", "properties": { "name": "Lindi PAG Educational Centre", "amenities": "education", "prob_bin": 8.0 }, "geometry": { "type": "Point", "coordinates": [ 36.793298, -1.3123988 ] } },
{ "type": "Feature", "properties": { "name": "Juja Preparatory School", "amenities": "education", "prob_bin": 8.0 }, "geometry": { "type": "Point", "coordinates": [ 37.005046, -1.1182735 ] } },
{ "type": "Feature", "properties": { "name": "Church of God Pre-Primary", "amenities": "education", "prob_bin": 8.0 }, "geometry": { "type": "Point", "coordinates": [ 36.7950624, -1.310617 ] } },
{ "type": "Feature", "properties": { "name": "Community Pillars Center", "amenities": "education", "prob_bin": 8.0 }, "geometry": { "type": "Point", "coordinates": [ 36.7940495, -1.3122452 ] } },
{ "type": "Feature", "properties": { "name": "Kibera Free Methodist Academy", "amenities": "education", "prob_bin": 8.0 }, "geometry": { "type": "Point", "coordinates": [ 36.7945332, -1.3130202 ] } },
{ "type": "Feature", "properties": { "name": "Spurgeons Academy", "amenities": "education", "prob_bin": 8.0 }, "geometry": { "type": "Point", "coordinates": [ 36.780022, -1.3146405 ] } },
{ "type": "Feature", "properties": { "name": "Rays Education Centre", "amenities": "education", "prob_bin": 8.0 }, "geometry": { "type": "Point", "coordinates": [ 36.7841063, -1.3158424 ] } },
{ "type": "Feature", "properties": { "name": "Palm Olive Academy", "amenities": "education", "prob_bin": 8.0 }, "geometry": { "type": "Point", "coordinates": [ 36.7794747, -1.3137892 ] } },
{ "type": "Feature", "properties": { "name": "Unit Weep Centre", "amenities": "education", "prob_bin": 8.0 }, "geometry": { "type": "Point", "coordinates": [ 36.7745083, -1.3150967 ] } },
{ "type": "Feature", "properties": { "name": "Muhaka Dispensary", "amenities": "healthcare", "prob_bin": 8.0 }, "geometry": { "type": "Point", "coordinates": [ 34.4839194, 0.122459 ] } },
{ "type": "Feature", "properties": { "name": "Chema Vision Children Center", "amenities": "education", "prob_bin": 8.0 }, "geometry": { "type": "Point", "coordinates": [ 36.7793539, -1.3144161 ] } },
{ "type": "Feature", "properties": { "name": "Future Star Centre", "amenities": "education", "prob_bin": 8.0 }, "geometry": { "type": "Point", "coordinates": [ 36.7751583, -1.3154633 ] } },
{ "type": "Feature", "properties": { "name": "Global One High School", "amenities": "education", "prob_bin": 8.0 }, "geometry": { "type": "Point", "coordinates": [ 36.7816406, -1.3153124 ] } },
{ "type": "Feature", "properties": { "name": "Kibera Hamlets", "amenities": "education", "prob_bin": 8.0 }, "geometry": { "type": "Point", "coordinates": [ 36.782232, -1.3154927 ] } },
{ "type": "Feature", "properties": { "name": "Baraka za Ibrahim Children Center", "amenities": "education", "prob_bin": 8.0 }, "geometry": { "type": "Point", "coordinates": [ 36.7831398, -1.3147479 ] } },
{ "type": "Feature", "properties": { "name": "ST. FRANCIS HEALTH SERVICES", "amenities": "healthcare", "prob_bin": 8.0 }, "geometry": { "type": "Point", "coordinates": [ 36.8591679, -1.254862 ] } },
{ "type": "Feature", "properties": { "name": "Premese Makueni Academy", "amenities": "education", "prob_bin": 6.0 }, "geometry": { "type": "Point", "coordinates": [ 37.6306756, -1.777875 ] } },
{ "type": "Feature", "properties": { "name": "Makueni Sunshine Academy", "amenities": "education", "prob_bin": 6.0 }, "geometry": { "type": "Point", "coordinates": [ 37.630047, -1.784205 ] } },
{ "type": "Feature", "properties": { "name": "Unoa ECDE", "amenities": "education", "prob_bin": 6.0 }, "geometry": { "type": "Point", "coordinates": [ 37.6289928, -1.7810157 ] } },
{ "type": "Feature", "properties": { "name": "Kiatine Primary School", "amenities": "education", "prob_bin": 6.0 }, "geometry": { "type": "Point", "coordinates": [ 37.5883533, -1.7697254 ] } },
{ "type": "Feature", "properties": { "name": "St. Paul's Academy", "amenities": "education", "prob_bin": 6.0 }, "geometry": { "type": "Point", "coordinates": [ 37.6073854, -1.7665411 ] } },
{ "type": "Feature", "properties": { "name": "The Victorious Academy", "amenities": "education", "prob_bin": 6.0 }, "geometry": { "type": "Point", "coordinates": [ 37.6320685, -1.773952 ] } },
{ "type": "Feature", "properties": { "name": "Heshima Blessed Academy", "amenities": "education", "prob_bin": 6.0 }, "geometry": { "type": "Point", "coordinates": [ 37.6322597, -1.773377 ] } },
{ "type": "Feature", "properties": { "name": "Makueni Early Childhood Teacher's Training InstituteMe", "amenities": "education", "prob_bin": 6.0 }, "geometry": { "type": "Point", "coordinates": [ 37.6274776, -1.7770419 ] } },
{ "type": "Feature", "properties": { "name": "Makueni Sunshine Academy", "amenities": "education", "prob_bin": 6.0 }, "geometry": { "type": "Point", "coordinates": [ 37.6301078, -1.7841022 ] } },
{ "type": "Feature", "properties": { "name": "Lasoha Pre-school", "amenities": "education", "prob_bin": 8.0 }, "geometry": { "type": "Point", "coordinates": [ 36.7940279, -1.3122235 ] } },
{ "type": "Feature", "properties": { "name": "Amazing Grace_Closed", "amenities": "education", "prob_bin": 8.0 }, "geometry": { "type": "Point", "coordinates": [ 36.7964339, -1.3149977 ] } },
{ "type": "Feature", "properties": { "name": "Becky School Centre", "amenities": "education", "prob_bin": 8.0 }, "geometry": { "type": "Point", "coordinates": [ 36.7834209, -1.3169844 ] } },
{ "type": "Feature", "properties": { "name": "Gifted Hands Educational Centre", "amenities": "education", "prob_bin": 8.0 }, "geometry": { "type": "Point", "coordinates": [ 36.784104, -1.3138454 ] } },
{ "type": "Feature", "properties": { "name": "Galilaya Educational Centre", "amenities": "education", "prob_bin": 8.0 }, "geometry": { "type": "Point", "coordinates": [ 36.778917, -1.3172201 ] } },
{ "type": "Feature", "properties": { "name": "Miracle And Victory Children Centre", "amenities": "education", "prob_bin": 8.0 }, "geometry": { "type": "Point", "coordinates": [ 36.7834195, -1.3142551 ] } },
{ "type": "Feature", "properties": { "name": "St. George Orthodox", "amenities": "education", "prob_bin": 8.0 }, "geometry": { "type": "Point", "coordinates": [ 36.7751291, -1.3118009 ] } },
{ "type": "Feature", "properties": { "name": "manyatta zebra primary", "amenities": "education", "prob_bin": 3.0 }, "geometry": { "type": "Point", "coordinates": [ 37.6644832, 0.5279644 ] } },
{ "type": "Feature", "properties": { "name": "MSF", "amenities": "healthcare", "prob_bin": 8.0 }, "geometry": { "type": "Point", "coordinates": [ 36.8533965, -1.2660199 ] } },
{ "type": "Feature", "properties": { "name": "Kabel Primary School", "amenities": "education", "prob_bin": 5.0 }, "geometry": { "type": "Point", "coordinates": [ 36.2253632, 0.3058722 ] } },
{ "type": "Feature", "properties": { "name": "Asiante Academy Primary School", "amenities": "education", "prob_bin": 5.0 }, "geometry": { "type": "Point", "coordinates": [ 36.2319588, 0.3149266 ] } },
{ "type": "Feature", "properties": { "name": "petanguo secondary", "amenities": "education", "prob_bin": 8.0 }, "geometry": { "type": "Point", "coordinates": [ 39.6270509, -3.5456142 ] } },
{ "type": "Feature", "properties": { "name": "petanguo primary", "amenities": "education", "prob_bin": 8.0 },