{
"type": "FeatureCollection",
"crs": { "type": "name", "properties": { "name": "urn:ogc:def:crs:OGC:1.3:CRS84" } },
"features": [
{ "type": "Feature", "properties": { "name": "Baringo", "sum": 770628.81391509622, "mean": 61.127057500999143, "centroid_size_sum": 8.4557069486221774, "centroid_size_mean": 0.55602292856411395 }, "geometry": { "type": "Point", "coordinates": [ 35.945786696621305, 0.671600846605821 ] } },
{ "type": "Feature", "properties": { "name": "Bomet", "sum": 1041471.9446496964, "mean": 365.04449514535446, "centroid_size_sum": 11.427526975574169, "centroid_size_mean": 3.3205116939190273 }, "geometry": { "type": "Point", "coordinates": [ 35.298115446605159, -0.716602073224111 ] } },
{ "type": "Feature", "properties": { "name": "Bungoma", "sum": 1739051.9028588533, "mean": 492.9285438942328, "centroid_size_sum": 19.081707033911055, "centroid_size_mean": 4.483768461199622 }, "geometry": { "type": "Point", "coordinates": [ 34.63977765076293, 0.751731907039823 ] } },
{ "type": "Feature", "properties": { "name": "Busia", "sum": 941851.06742095947, "mean": 475.2023549046213, "centroid_size_sum": 10.334439189858861, "centroid_size_mean": 4.322527794345608 }, "geometry": { "type": "Point", "coordinates": [ 34.193598089758083, 0.390087170653788 ] } },
{ "type": "Feature", "properties": { "name": "Elgeyo-Marakwet", "sum": 517812.23362827301, "mean": 146.77217506470325, "centroid_size_sum": 5.6816828321378532, "centroid_size_mean": 1.3350666292069955 }, "geometry": { "type": "Point", "coordinates": [ 35.537241369211031, 0.802463184892521 ] } },
{ "type": "Feature", "properties": { "name": "Embu", "sum": 625654.57340223156, "mean": 189.7072690728416, "centroid_size_sum": 6.8649804266692733, "centroid_size_mean": 1.7256121205909123 }, "geometry": { "type": "Point", "coordinates": [ 37.625769175498846, -0.601545642566372 ] } },
{ "type": "Feature", "properties": { "name": "Garissa", "sum": 1408303.0304231122, "mean": 27.639798838575761, "centroid_size_sum": 15.452572633011307, "centroid_size_mean": 0.25141668065564399 }, "geometry": { "type": "Point", "coordinates": [ 40.198796311676446, -0.486824144366568 ] } },
{ "type": "Feature", "properties": { "name": "Homa Bay", "sum": 1160030.5818440914, "mean": 303.51401932079835, "centroid_size_sum": 12.728408897248944, "centroid_size_mean": 2.7608191982782242 }, "geometry": { "type": "Point", "coordinates": [ 34.358230491196572, -0.540427531774916 ] } },
{ "type": "Feature", "properties": { "name": "Isiolo", "sum": 179457.66347812861, "mean": 6.0380762248285258, "centroid_size_sum": 1.9690950878754658, "centroid_size_mean": 0.054923449004029512 }, "geometry": { "type": "Point", "coordinates": [ 38.54125021365946, 1.01270920252799 ] } },
{ "type": "Feature", "properties": { "name": "Kajiado", "sum": 946812.65648901463, "mean": 37.328996076684064, "centroid_size_sum": 10.388880111871392, "centroid_size_mean": 0.33955139618125629 }, "geometry": { "type": "Point", "coordinates": [ 36.907682180143155, -2.118398974764543 ] } },
{ "type": "Feature", "properties": { "name": "Kakamega", "sum": 2119969.8439012934, "mean": 602.093111019964, "centroid_size_sum": 23.261320387016585, "centroid_size_mean": 5.4767493896156632 }, "geometry": { "type": "Point", "coordinates": [ 34.74407384643726, 0.406125064915392 ] } },
{ "type": "Feature", "properties": { "name": "Kericho", "sum": 1064241.444401741, "mean": 361.49505584298271, "centroid_size_sum": 11.677364788271408, "centroid_size_mean": 3.2882253428930022 }, "geometry": { "type": "Point", "coordinates": [ 35.313190006346844, -0.288498596120754 ] } },
{ "type": "Feature", "properties": { "name": "Kiambu", "sum": 1858151.6828040332, "mean": 625.64029724041518, "centroid_size_sum": 20.388526631981239, "centroid_size_mean": 5.690938915122036 }, "geometry": { "type": "Point", "coordinates": [ 36.822696701161874, -1.066328983439926 ] } },
{ "type": "Feature", "properties": { "name": "Kilifi", "sum": 1415843.1435849834, "mean": 96.041455947970661, "centroid_size_sum": 15.535306351378678, "centroid_size_mean": 0.87361070175640509 }, "geometry": { "type": "Point", "coordinates": [ 39.686030867589324, -3.172738661368802 ] } },
{ "type": "Feature", "properties": { "name": "Kirinyaga", "sum": 613004.12553584576, "mean": 354.33764481840797, "centroid_size_sum": 6.726173678212076, "centroid_size_mean": 3.2231202192126078 }, "geometry": { "type": "Point", "coordinates": [ 37.319154713716138, -0.522327048648657 ] } },
{ "type": "Feature", "properties": { "name": "Kisii", "sum": 1400237.9931030273, "mean": 909.83625282847777, "centroid_size_sum": 15.364079196382747, "centroid_size_mean": 8.2760374618591932 }, "geometry": { "type": "Point", "coordinates": [ 34.774065547086124, -0.772378701854465 ] } },
{ "type": "Feature", "properties": { "name": "Kisumu", "sum": 1185299.5573928356, "mean": 475.06996288290003, "centroid_size_sum": 13.005672150677746, "centroid_size_mean": 4.3213235322291998 }, "geometry": { "type": "Point", "coordinates": [ 34.834254536529599, -0.167025734752646 ] } },
{ "type": "Feature", "properties": { "name": "Kitui", "sum": 1227393.613006151, "mean": 34.440586256415934, "centroid_size_sum": 13.467548208408978, "centroid_size_mean": 0.31327789058788497 }, "geometry": { "type": "Point", "coordinates": [ 38.406128719378856, -1.488169132723856 ] } },
{ "type": "Feature", "properties": { "name": "Kwale", "sum": 784569.08085308969, "mean": 81.965010536260934, "centroid_size_sum": 8.6086662071975066, "centroid_size_mean": 0.74556877201909044 }, "geometry": { "type": "Point", "coordinates": [ 39.152545914615914, -4.139264064839901 ] } },
{ "type": "Feature", "properties": { "name": "Laikipia", "sum": 554787.28913402557, "mean": 49.779029980621409, "centroid_size_sum": 6.0873907788434742, "centroid_size_mean": 0.45279918848463352 }, "geometry": { "type": "Point", "coordinates": [ 36.770898134815702, 0.326005785217819 ] } },
{ "type": "Feature", "properties": { "name": "Lamu", "sum": 87271.083357138559, "mean": 12.575084057224576, "centroid_size_sum": 0.95757995630571346, "centroid_size_mean": 0.11438527143767098 }, "geometry": { "type": "Point", "coordinates": [ 40.756198128574212, -2.045331886203316 ] } },
{ "type": "Feature", "properties": { "name": "Machakos", "sum": 1320012.3564318419, "mean": 186.83826701087642, "centroid_size_sum": 14.483805241906758, "centroid_size_mean": 1.6995151515273466 }, "geometry": { "type": "Point", "coordinates": [ 37.41193518727254, -1.277136481480503 ] } },
{ "type": "Feature", "properties": { "name": "Makueni", "sum": 1080163.2549319733, "mean": 112.90511706198112, "centroid_size_sum": 11.852066488368965, "centroid_size_mean": 1.027005656826369 }, "geometry": { "type": "Point", "coordinates": [ 37.787315874672444, -2.155052695751726 ] } },
{ "type": "Feature", "properties": { "name": "Mandera", "sum": 2404756.5540213585, "mean": 80.515503867859465, "centroid_size_sum": 26.386136018297655, "centroid_size_mean": 0.73238379345661631 }, "geometry": { "type": "Point", "coordinates": [ 40.738766950074869, 3.436027713135513 ] } },
{ "type": "Feature", "properties": { "name": "Marsabit", "sum": 351642.01764070615, "mean": 4.2265681583776793, "centroid_size_sum": 3.8583839564551146, "centroid_size_mean": 0.038445639317066398 }, "geometry": { "type": "Point", "coordinates": [ 37.568678054517221, 2.978983937756374 ] } },
{ "type": "Feature", "properties": { "name": "Meru", "sum": 1651915.004083703, "mean": 201.97029026576635, "centroid_size_sum": 18.12559941484712, "centroid_size_mean": 1.8371588109681214 }, "geometry": { "type": "Point", "coordinates": [ 37.763273362235381, 0.169244949848094 ] } },
{ "type": "Feature", "properties": { "name": "Migori", "sum": 1085193.0472017527, "mean": 357.5594883696055, "centroid_size_sum": 11.907255768444839, "centroid_size_mean": 3.2524266991897108 }, "geometry": { "type": "Point", "coordinates": [ 34.363191441650812, -0.987538926668928 ] } },
{ "type": "Feature", "properties": { "name": "Mombasa", "sum": 1048281.504524231, "mean": 3798.1213932037354, "centroid_size_sum": 11.502244714787208, "centroid_size_mean": 34.548408944052881 }, "geometry": { "type": "Point", "coordinates": [ 39.654609858992337, -4.017174190156527 ] } },
{ "type": "Feature", "properties": { "name": "Murang'a", "sum": 1094321.5059222609, "mean": 370.57958209355263, "centroid_size_sum": 12.007417571947968, "centroid_size_mean": 3.3708598601912851 }, "geometry": { "type": "Point", "coordinates": [ 37.031958246569779, -0.807126842825938 ] } },
{ "type": "Feature", "properties": { "name": "Nairobi", "sum": 4556856.2072782516, "mean": 5496.8108652331139, "centroid_size_sum": 50.0, "centroid_size_mean": 50.0 }, "geometry": { "type": "Point", "coordinates": [ 36.867520587534898, -1.290910432260815 ] } },
{ "type": "Feature", "properties": { "name": "Nandi", "sum": 1079631.2677187864, "mean": 324.99436114352392, "centroid_size_sum": 11.846229270899416, "centroid_size_mean": 2.9562083279878437 }, "geometry": { "type": "Point", "coordinates": [ 35.109858291055986, 0.189056215424645 ] } },
{ "type": "Feature", "properties": { "name": "Narok", "sum": 1209808.0151275396, "mean": 58.371514770218063, "centroid_size_sum": 13.274590639871667, "centroid_size_mean": 0.53095800639069823 }, "geometry": { "type": "Point", "coordinates": [ 35.574689556154574, -1.252783233262778 ] } },
{ "type": "Feature", "properties": { "name": "Nyamira", "sum": 740798.50678253174, "mean": 708.22036977297489, "centroid_size_sum": 8.1283945892271259, "centroid_size_mean": 6.442102403890333 }, "geometry": { "type": "Point", "coordinates": [ 34.963921088115015, -0.640145082341997 ] } },
{ "type": "Feature", "properties": { "name": "Nyandarua", "sum": 695130.61520648003, "mean": 182.35325687473244, "centroid_size_sum": 7.6273046985354851, "centroid_size_mean": 1.6587186765702828 }, "geometry": { "type": "Point", "coordinates": [ 36.482170572525227, -0.319799429995194 ] } },
{ "type": "Feature", "properties": { "name": "Nyeri", "sum": 810050.60315730365, "mean": 207.54563237440524, "centroid_size_sum": 8.8882616250155486, "centroid_size_mean": 1.8878731455644095 }, "geometry": { "type": "Point", "coordinates": [ 36.955711186137009, -0.340515298205535 ] } },
{ "type": "Feature", "properties": { "name": "Samburu", "sum": 312954.82639694959, "mean": 12.720706706647817, "centroid_size_sum": 3.4338896397158125, "centroid_size_mean": 0.11570988177076696 }, "geometry": { "type": "Point", "coordinates": [ 37.117564525896746, 1.31934459018588 ] } },
{ "type": "Feature", "properties": { "name": "Siaya", "sum": 1033395.5109645128, "mean": 333.89192599822707, "centroid_size_sum": 11.338908492591496, "centroid_size_mean": 3.0371422101319387 }, "geometry": { "type": "Point", "coordinates": [ 34.249054870952456, -0.058427642178021 ] } },
{ "type": "Feature", "properties": { "name": "Taita Taveta", "sum": 375599.31140635908, "mean": 18.82514592052722, "centroid_size_sum": 4.121254811666522, "centroid_size_mean": 0.17123698069725077 }, "geometry": { "type": "Point", "coordinates": [ 38.41774750049079, -3.432348885216018 ] } },
{ "type": "Feature", "properties": { "name": "Tana River", "sum": 373382.36240327882, "mean": 8.14018972297802, "centroid_size_sum": 4.0969293896843739, "centroid_size_mean": 0.074044659008226613 }, "geometry": { "type": "Point", "coordinates": [ 39.416988792565263, -1.524176116876461 ] } },
{ "type": "Feature", "properties": { "name": "Tharaka-Nithi", "sum": 429321.24254125287, "mean": 141.73695693009338, "centroid_size_sum": 4.7107174663042599, "centroid_size_mean": 1.289265361362242 }, "geometry": { "type": "Point", "coordinates": [ 37.869545417837088, -0.20463053369267 ] } },
{ "type": "Feature", "properties": { "name": "Trans Nzoia", "sum": 1145595.4100089073, "mean": 394.35298107019184, "centroid_size_sum": 12.570019306064037, "centroid_size_mean": 3.5871070584258473 }, "geometry": { "type": "Point", "coordinates": [ 34.956707039433972, 1.053341320008565 ] } },
{ "type": "Feature", "properties": { "name": "Turkana", "sum": 1190620.9928065874, "mean": 15.164441918722614, "centroid_size_sum": 13.06406147844776, "centroid_size_mean": 0.13793854555408197 }, "geometry": { "type": "Point", "coordinates": [ 35.431527339759612, 3.412046366591165 ] } },
{ "type": "Feature", "properties": { "name": "Uasin Gishu", "sum": 1272392.0221076328, "mean": 320.25975889947972, "centroid_size_sum": 13.961292218035727, "centroid_size_mean": 2.9131415174305606 }, "geometry": { "type": "Point", "coordinates": [ 35.321309357404978, 0.528372577346559 ] } },
{ "type": "Feature", "properties": { "name": "Vihiga", "sum": 696225.07640075684, "mean": 1067.8298717803018, "centroid_size_sum": 7.6393136488346931, "centroid_size_mean": 9.7131764031962575 }, "geometry": { "type": "Point", "coordinates": [ 34.721578826356911, 0.078616947480176 ] } },
{ "type": "Feature", "properties": { "name": "Wajir", "sum": 1573476.0574568585, "mean": 23.851387865042572, "centroid_size_sum": 17.264929875817547, "centroid_size_mean": 0.21695659947025539 }, "geometry": { "type": "Point", "coordinates": [ 40.034710623920347, 1.809791103513959 ] } },
{ "type": "Feature", "properties": { "name": "West Pokot", "sum": 724290.41451454163, "mean": 66.62592351343406, "centroid_size_sum": 7.9472599262370673, "centroid_size_mean": 0.60604162256007077 }, "geometry": { "type": "Point", "coordinates": [ 35.243256029580451, 1.741414722383605 ] } },
{ "type": "Feature", "properties": { "name": "Nakuru", "sum": 2261402.5498035997, "mean": 262.67888834981994, "centroid_size_sum": 24.813187501853442, "centroid_size_mean": 2.3893753559108495 }, "geometry": { "type": "Point", "coordinates": [ 36.077126394151918, -0.461395369573073 ] } }
]
}
